{
  "batch_num": 1,
  "total_hospitals": 10,
  "hospitals": [
    {
      "cnes_id": "0000027",
      "name": "Casa De Saude Santa Helena",
      "address": "AVN PRESIDENTE GETULIO VARGAS, 428, CENTRO",
      "city": null,
      "state": "26",
      "lat": -8.280192514203097,
      "long": -35.03143714594996,
      "telefone": "(81)35210355",
      "existence_query": "Casa De Saude Santa Helena 26",
      "location_query": "Casa De Saude Santa Helena AVN PRESIDENTE GETULIO VARGAS, 428, CENTRO 26",
      "validation_status": "pending"
    },
    {
      "cnes_id": "0000035",
      "name": "Hospital Mendo Sampaio",
      "address": "BR 101 SUL KM 33, S/N, CHARNECA",
      "city": null,
      "state": "26",
      "lat": -8.292214339969746,
      "long": -35.04819802058195,
      "telefone": "(81)35210857",
      "existence_query": "Hospital Mendo Sampaio 26",
      "location_query": "Hospital Mendo Sampaio BR 101 SUL KM 33, S/N, CHARNECA 26",
      "validation_status": "pending"
    },
    {
      "cnes_id": "0000094",
      "name": "Maternidade Padre Geraldo Leite Bastos",
      "address": "BR 101 SUL KM 23, S/N, PONTE DOS CARVALHOS",
      "city": null,
      "state": "26",
      "lat": -8.232359947405369,
      "long": -34.97720999030816,
      "telefone": "(81)35221626",
      "existence_query": "Maternidade Padre Geraldo Leite Bastos 26",
      "location_query": "Maternidade Padre Geraldo Leite Bastos BR 101 SUL KM 23, S/N, PONTE DOS CARVALHOS 26",
      "validation_status": "pending"
    },
    {
      "cnes_id": "0000183",
      "name": "Hospital Samaritano",
      "address": "RUA SEVERINO BEZERRA MARQUES, 40, CENTRO",
      "city": null,
      "state": "26",
      "lat": -8.283999,
      "long": -35.0349039,
      "telefone": "(81)35210109",
      "existence_query": "Hospital Samaritano 26",
      "location_query": "Hospital Samaritano RUA SEVERINO BEZERRA MARQUES, 40, CENTRO 26",
      "validation_status": "pending"
    },
    {
      "cnes_id": "0000221",
      "name": "Hospital Sao Sebastiao",
      "address": "AVN PRESIDENTE GETULIO VARGAS, 864, CENTRO",
      "city": null,
      "state": "26",
      "lat": -8.282672625662789,
      "long": -35.03398418426514,
      "telefone": "(81)35214150",
      "existence_query": "Hospital Sao Sebastiao 26",
      "location_query": "Hospital Sao Sebastiao AVN PRESIDENTE GETULIO VARGAS, 864, CENTRO 26",
      "validation_status": "pending"
    },
    {
      "cnes_id": "0000396",
      "name": "Hospital Das Clinicas",
      "address": "AV PROFESSOR MORAES REGO, 1235, CIDADE UNIVERSITARIA",
      "city": null,
      "state": "26",
      "lat": -8.04750180385578,
      "long": -34.946136474609375,
      "telefone": "(81)21263633",
      "existence_query": "Hospital Das Clinicas 26",
      "location_query": "Hospital Das Clinicas AV PROFESSOR MORAES REGO, 1235, CIDADE UNIVERSITARIA 26",
      "validation_status": "pending"
    },
    {
      "cnes_id": "0000418",
      "name": "Hospital Agamenon Magalhaes",
      "address": "ESTRADA DO ARRAIAL, 2723, CASA AMARELA",
      "city": null,
      "state": "26",
      "lat": -8.030155,
      "long": -34.90701109170914,
      "telefone": "(81)31841601",
      "existence_query": "Hospital Agamenon Magalhaes 26",
      "location_query": "Hospital Agamenon Magalhaes ESTRADA DO ARRAIAL, 2723, CASA AMARELA 26",
      "validation_status": "pending"
    },
    {
      "cnes_id": "0000485",
      "name": "Fundacao Altino Ventura",
      "address": "AV MAURICIO DE NASSAU, 2075, IPUTINGA",
      "city": null,
      "state": "26",
      "lat": -8.05888,
      "long": -34.889708161354065,
      "telefone": "81 33024300",
      "existence_query": "Fundacao Altino Ventura 26",
      "location_query": "Fundacao Altino Ventura AV MAURICIO DE NASSAU, 2075, IPUTINGA 26",
      "validation_status": "pending"
    },
    {
      "cnes_id": "0000566",
      "name": "Hospital Maria Lucinda",
      "address": "AV PARNAMIRIM, 095, PARNAMIRIM",
      "city": null,
      "state": "26",
      "lat": -8.053833170965348,
      "long": -34.88126993179321,
      "telefone": "(81)32674200/4201",
      "existence_query": "Hospital Maria Lucinda 26",
      "location_query": "Hospital Maria Lucinda AV PARNAMIRIM, 095, PARNAMIRIM 26",
      "validation_status": "pending"
    },
    {
      "cnes_id": "0000655",
      "name": "Hospital Da Restauracao",
      "address": "AV AGAMENON MAGALHAES, S/N, DERBY",
      "city": null,
      "state": "26",
      "lat": -8.05350385733086,
      "long": -34.89777624607086,
      "telefone": "(81)31815444",
      "existence_query": "Hospital Da Restauracao 26",
      "location_query": "Hospital Da Restauracao AV AGAMENON MAGALHAES, S/N, DERBY 26",
      "validation_status": "pending"
    }
  ]
}