{
  "type": "FeatureCollection",
  "features": [
    {
      "type": "Feature",
      "geometry": {
        "type": "Point",
        "coordinates": [
          -46.8039772,
          -21.3009965
        ]
      },
      "properties": {
        "id": "3128306260489",
        "name": "FARMACIA BASICA",
        "address": "PRACA RUI BARBOSA, 40",
        "phone": "35-35551966",
        "has_nicu": false,
        "accepts_sus": true,
        "private_only": false
      }
    },
    {
      "type": "Feature",
      "geometry": {
        "type": "Point",
        "coordinates": [
          -52.0157,
          -25.5008
        ]
      },
      "properties": {
        "id": "4121752743132",
        "name": "POSTO DE SAUDE SEDE DE RESERVA DO IGUACU",
        "address": "AVENIDA CANDIDO RAMALHO, 02",
        "phone": "(42)3658062",
        "has_nicu": false,
        "accepts_sus": true,
        "private_only": false
      }
    },
    {
      "type": "Feature",
      "geometry": {
        "type": "Point",
        "coordinates": [
          -52.343,
          -31.772
        ]
      },
      "properties": {
        "id": "4314402818256",
        "name": "3 CRS PELOTAS",
        "address": "RUA MARECHAL FLORIANO, 204",
        "phone": "(53)32732536",
        "has_nicu": false,
        "accepts_sus": true,
        "private_only": false
      }
    },
    {
      "type": "Feature",
      "geometry": {
        "type": "Point",
        "coordinates": [
          -53.2795125246048,
          -26.3480849955614
        ]
      },
      "properties": {
        "id": "4212002378744",
        "name": "UNIDADE SANITARIA PRINCIPAL PS",
        "address": "RUA PEDRO MELLO DOS SANTOS, 750",
        "phone": "(49) 3652 3270",
        "has_nicu": false,
        "accepts_sus": true,
        "private_only": false
      }
    },
    {
      "type": "Feature",
      "geometry": {
        "type": "Point",
        "coordinates": [
          -51.82773259910997,
          -29.590586653199285
        ]
      },
      "properties": {
        "id": "4308072251159",
        "name": "UNIDADE SANITARIA DE FAZENDA VILANOVA",
        "address": "AV RIO GRANDE DO SUL, 112",
        "phone": "(51)3840-0239",
        "has_nicu": false,
        "accepts_sus": true,
        "private_only": false
      }
    },
    {
      "type": "Feature",
      "geometry": {
        "type": "Point",
        "coordinates": [
          -38.55471611022949,
          -6.88416363401288
        ]
      },
      "properties": {
        "id": "2503702757354",
        "name": "FARMACIA CENTRAL DO MUNICIPIO",
        "address": "AVENIDA BARAO DO RIO BRANCO, 800",
        "phone": "(83)05314770",
        "has_nicu": false,
        "accepts_sus": true,
        "private_only": false
      }
    },
    {
      "type": "Feature",
      "geometry": {
        "type": "Point",
        "coordinates": [
          -49.259018,
          -16.679675
        ]
      },
      "properties": {
        "id": "5208702336766",
        "name": "CENTRO ESTADUAL DE MEDICACAO DE ALTO CUSTO JUAREZ BARBOSA",
        "address": "R 16 ESQ C R 12, 97",
        "phone": "(62)32017447",
        "has_nicu": false,
        "accepts_sus": true,
        "private_only": false
      }
    },
    {
      "type": "Feature",
      "geometry": {
        "type": "Point",
        "coordinates": [
          -43.008738,
          -18.291838
        ]
      },
      "properties": {
        "id": "3156009738169",
        "name": "FARMACIA DE TODOS RIO VERMELHO",
        "address": "RUA DA PRAIA, 33",
        "phone": "",
        "has_nicu": false,
        "accepts_sus": true,
        "private_only": false
      }
    },
    {
      "type": "Feature",
      "geometry": {
        "type": "Point",
        "coordinates": [
          -53.94098223279346,
          -27.4576264118657
        ]
      },
      "properties": {
        "id": "4321909799214",
        "name": "FARMACIA BASICA MUNICIPAL",
        "address": "AV OSVALDO ARANHA, 122",
        "phone": "(55) 3522 0432",
        "has_nicu": false,
        "accepts_sus": true,
        "private_only": false
      }
    },
    {
      "type": "Feature",
      "geometry": {
        "type": "Point",
        "coordinates": [
          -39.015,
          -4.975
        ]
      },
      "properties": {
        "id": "2311303350479",
        "name": "HEMOCE DE QUIXADA",
        "address": "AV FRANCISCO ALMEIDA PINHEIRO, 2340",
        "phone": "88-3445-1007",
        "has_nicu": false,
        "accepts_sus": true,
        "private_only": false
      }
    },
    {
      "type": "Feature",
      "geometry": {
        "type": "Point",
        "coordinates": [
          -39.2943180131071,
          -7.945116137472215
        ]
      },
      "properties": {
        "id": "2614000998974",
        "name": "CAF CENTRAL DE ABASTECIMENTO FARMACEUTICO",
        "address": "AVENIDA PRESIDENTE GETULIO VARGAS, 90",
        "phone": "",
        "has_nicu": false,
        "accepts_sus": true,
        "private_only": false
      }
    },
    {
      "type": "Feature",
      "geometry": {
        "type": "Point",
        "coordinates": [
          -39.62292194366455,
          -7.71152324611521
        ]
      },
      "properties": {
        "id": "2606302877384",
        "name": "CAF CENTRAL DE ABASTECIMENTO FARMACEUTICO",
        "address": "RUA JOAQUIM MONTEIRO DOS SANTOS, S/N",
        "phone": "",
        "has_nicu": false,
        "accepts_sus": true,
        "private_only": false
      }
    },
    {
      "type": "Feature",
      "geometry": {
        "type": "Point",
        "coordinates": [
          -51.0525,
          -31.1728
        ]
      },
      "properties": {
        "id": "4321350970247",
        "name": "POLICLINICA BEM ESTAR",
        "address": "AV ANTONIO DA COSTA MENEZES, 256",
        "phone": "08001230103 RAMAL 6",
        "has_nicu": false,
        "accepts_sus": true,
        "private_only": false
      }
    },
    {
      "type": "Feature",
      "geometry": {
        "type": "Point",
        "coordinates": [
          -53.85373592376709,
          -29.53231710916161
        ]
      },
      "properties": {
        "id": "4319120964123",
        "name": "FARMACIA BASICA UBS CENTRAL",
        "address": "AV 24 DE JANEIRO, 568",
        "phone": "",
        "has_nicu": false,
        "accepts_sus": true,
        "private_only": false
      }
    },
    {
      "type": "Feature",
      "geometry": {
        "type": "Point",
        "coordinates": [
          -35.97990274429321,
          -8.288384491395842
        ]
      },
      "properties": {
        "id": "2604102798301",
        "name": "FARMACIA CARUARU UNIDADE MOVEL",
        "address": "AV VERA CRUZ, 689",
        "phone": "",
        "has_nicu": false,
        "accepts_sus": true,
        "private_only": false
      }
    },
    {
      "type": "Feature",
      "geometry": {
        "type": "Point",
        "coordinates": [
          -54.67504978179932,
          -29.69368218222993
        ]
      },
      "properties": {
        "id": "4319802944243",
        "name": "FARMACIA BASICA FARMACIA DE MEDICAMENTOS ESPECIAIS",
        "address": "RUA SETE DE SETEMBRO, 815",
        "phone": "(55) 32572901",
        "has_nicu": false,
        "accepts_sus": true,
        "private_only": false
      }
    },
    {
      "type": "Feature",
      "geometry": {
        "type": "Point",
        "coordinates": [
          -48.076683,
          -27.068554
        ]
      },
      "properties": {
        "id": "4215702930773",
        "name": "CENTRAL DE ABASTECIMENTO FARMACEUTICO CAF",
        "address": "RUA SANTANA, 4443",
        "phone": "4832454364",
        "has_nicu": false,
        "accepts_sus": true,
        "private_only": false
      }
    },
    {
      "type": "Feature",
      "geometry": {
        "type": "Point",
        "coordinates": [
          -41.18982882364226,
          -20.915997422842068
        ]
      },
      "properties": {
        "id": "3200709040307",
        "name": "SECRETARIA DE SAUDE DE ATILIO VIVACQUA 1 ANDAR",
        "address": "PRACA JOSE VALENTIM LOPES, 01",
        "phone": "28 3526-9603",
        "has_nicu": false,
        "accepts_sus": true,
        "private_only": false
      }
    },
    {
      "type": "Feature",
      "geometry": {
        "type": "Point",
        "coordinates": [
          -41.77250862121582,
          -16.60781767703333
        ]
      },
      "properties": {
        "id": "3134009039503",
        "name": "FARMACIA DE MINAS DE ITINGA",
        "address": "RUA BARTOLOMEU DE GUSMAO, 95",
        "phone": "(33)37331722",
        "has_nicu": false,
        "accepts_sus": true,
        "private_only": false
      }
    },
    {
      "type": "Feature",
      "geometry": {
        "type": "Point",
        "coordinates": [
          -54.24217879772186,
          -25.342959439413296
        ]
      },
      "properties": {
        "id": "4125709026770",
        "name": "CAF CENTRAL DE ABASTECIMENTO FARMACEUTICO",
        "address": "RUA NEREU RAMOS, 253",
        "phone": "(45) 3565-1776",
        "has_nicu": false,
        "accepts_sus": true,
        "private_only": false
      }
    },
    {
      "type": "Feature",
      "geometry": {
        "type": "Point",
        "coordinates": [
          -40.15504270792008,
          -4.335911134215017
        ]
      },
      "properties": {
        "id": "2312209146881",
        "name": "CENTRAL DE ABASTECIMENTO FARMACEUTICO CAF",
        "address": "TABELIAO FRANCISCO DE PAULA LOBO, 348",
        "phone": "8836280152",
        "has_nicu": false,
        "accepts_sus": true,
        "private_only": false
      }
    },
    {
      "type": "Feature",
      "geometry": {
        "type": "Point",
        "coordinates": [
          -39.0353787,
          -14.7918619
        ]
      },
      "properties": {
        "id": "2913609114882",
        "name": "CAF CENTRAL DE ABASTECIMENTO FARMACEUTICO",
        "address": "RUA TEODORO SAMPAIO, S/N",
        "phone": "",
        "has_nicu": false,
        "accepts_sus": true,
        "private_only": false
      }
    },
    {
      "type": "Feature",
      "geometry": {
        "type": "Point",
        "coordinates": [
          -51.094043,
          -29.950937
        ]
      },
      "properties": {
        "id": "4303109131973",
        "name": "FARMACIA CENTRAL DE CACHOEIRINHA",
        "address": "AVENIDA JOSE BRAMBILA, 40",
        "phone": "513041-8687",
        "has_nicu": false,
        "accepts_sus": true,
        "private_only": false
      }
    },
    {
      "type": "Feature",
      "geometry": {
        "type": "Point",
        "coordinates": [
          -44.39491510391235,
          -22.171091752202614
        ]
      },
      "properties": {
        "id": "3107209174737",
        "name": "FARMACIA DE TODOS",
        "address": "AVENIDA ALVARO BENFICA, 96",
        "phone": "3232941347",
        "has_nicu": false,
        "accepts_sus": true,
        "private_only": false
      }
    },
    {
      "type": "Feature",
      "geometry": {
        "type": "Point",
        "coordinates": [
          -35.384602546691895,
          -8.581010606905735
        ]
      },
      "properties": {
        "id": "2605900644579",
        "name": "CAF DA GAMELEIRA",
        "address": "RUA ANTONIO RIGUEIRA, 298",
        "phone": "",
        "has_nicu": false,
        "accepts_sus": true,
        "private_only": false
      }
    },
    {
      "type": "Feature",
      "geometry": {
        "type": "Point",
        "coordinates": [
          -49.5783936,
          -14.7630813
        ]
      },
      "properties": {
        "id": "5216900562092",
        "name": "FARMACIA BASICA DE PILAR DE GOIAS",
        "address": "RUA PADRE BRAZ, S/N",
        "phone": "(62)3339-3016",
        "has_nicu": false,
        "accepts_sus": true,
        "private_only": false
      }
    },
    {
      "type": "Feature",
      "geometry": {
        "type": "Point",
        "coordinates": [
          -58.447630405426025,
          -3.143488880458649
        ]
      },
      "properties": {
        "id": "1301900797812",
        "name": "CENTRAL DE ABASTECIMENTO FARMACEUTICO CAF",
        "address": "CONSELHEIRO RUY BARBOSA, 485",
        "phone": "(92)992014175",
        "has_nicu": false,
        "accepts_sus": true,
        "private_only": false
      }
    },
    {
      "type": "Feature",
      "geometry": {
        "type": "Point",
        "coordinates": [
          -53.565,
          -30.161
        ]
      },
      "properties": {
        "id": "4319607569009",
        "name": "POLICLINICA",
        "address": "RUA OSVALDO ARANHA, S/N",
        "phone": "(55) 3233-3926",
        "has_nicu": false,
        "accepts_sus": true,
        "private_only": false
      }
    },
    {
      "type": "Feature",
      "geometry": {
        "type": "Point",
        "coordinates": [
          -69.86474275588989,
          -6.6612401483525305
        ]
      },
      "properties": {
        "id": "1301407611773",
        "name": "FARMACIA DA CIDADE DE EIRUNEPE",
        "address": "RUA LELAND BARROSO, S/N",
        "phone": "97-34811007",
        "has_nicu": false,
        "accepts_sus": true,
        "private_only": false
      }
    },
    {
      "type": "Feature",
      "geometry": {
        "type": "Point",
        "coordinates": [
          -35.98166227340698,
          -8.288363257847806
        ]
      },
      "properties": {
        "id": "2604107612389",
        "name": "FARMACIA CARUARU SAO FRANCISCO II",
        "address": "AV VERA CRUZ, 654",
        "phone": "3701-1548/1518",
        "has_nicu": false,
        "accepts_sus": true,
        "private_only": false
      }
    },
    {
      "type": "Feature",
      "geometry": {
        "type": "Point",
        "coordinates": [
          -51.97700500488281,
          -29.4527710015486
        ]
      },
      "properties": {
        "id": "4311407609736",
        "name": "MEDICAMENTOS DO ESTADO MUNICIPIO DE LAJEADO",
        "address": "AVENIDA BENJAMIN CONSTANT, 2718",
        "phone": "(51) 3982-1113",
        "has_nicu": false,
        "accepts_sus": true,
        "private_only": false
      }
    },
    {
      "type": "Feature",
      "geometry": {
        "type": "Point",
        "coordinates": [
          -46.858194803622496,
          -20.73931177411765
        ]
      },
      "properties": {
        "id": "3152907599579",
        "name": "FARMACIA DE MINAS PRATAPOLIS",
        "address": "RUA PALMEIRAS, 160",
        "phone": "",
        "has_nicu": false,
        "accepts_sus": true,
        "private_only": false
      }
    },
    {
      "type": "Feature",
      "geometry": {
        "type": "Point",
        "coordinates": [
          -43.5628268122673,
          -18.616149503670936
        ]
      },
      "properties": {
        "id": "3153307610955",
        "name": "FARMACIA DE MINAS",
        "address": "RUA PLINIO RODRIGUES DE OLIVEIRA, 34",
        "phone": "3835451163",
        "has_nicu": false,
        "accepts_sus": true,
        "private_only": false
      }
    },
    {
      "type": "Feature",
      "geometry": {
        "type": "Point",
        "coordinates": [
          -58.612973,
          -11.138264
        ]
      },
      "properties": {
        "id": "5102857612761",
        "name": "FARMACIA MUNICIPAL DE CASTANHEIRA",
        "address": "AVENIDA CASTANHEIRA, S/N",
        "phone": "66 3581 1296",
        "has_nicu": false,
        "accepts_sus": true,
        "private_only": false
      }
    },
    {
      "type": "Feature",
      "geometry": {
        "type": "Point",
        "coordinates": [
          -42.5234444,
          -20.6707518
        ]
      },
      "properties": {
        "id": "3103707612974",
        "name": "FARMACIA DE MINAS ARAPONGA",
        "address": "RUA MOISES MAURICIO MACEDO, S/N",
        "phone": "08000314004",
        "has_nicu": false,
        "accepts_sus": true,
        "private_only": false
      }
    },
    {
      "type": "Feature",
      "geometry": {
        "type": "Point",
        "coordinates": [
          -50.1561148036986,
          -25.095823741294183
        ]
      },
      "properties": {
        "id": "4119907612494",
        "name": "FARMACIA CENTRAL",
        "address": "RUA XV DE NOVEMBRO, 40",
        "phone": "42 32201014",
        "has_nicu": false,
        "accepts_sus": true,
        "private_only": false
      }
    },
    {
      "type": "Feature",
      "geometry": {
        "type": "Point",
        "coordinates": [
          -40.831,
          -18.373
        ]
      },
      "properties": {
        "id": "3202107611226",
        "name": "FARMACIA BASICA DE ECOPORANGA",
        "address": "RUA AYRES XAVIER DA PENHA, 361",
        "phone": "",
        "has_nicu": false,
        "accepts_sus": true,
        "private_only": false
      }
    },
    {
      "type": "Feature",
      "geometry": {
        "type": "Point",
        "coordinates": [
          -41.416,
          -20.466
        ]
      },
      "properties": {
        "id": "3203707614403",
        "name": "CAF CENTRO DE ABASTECIMENTO FARMACEUTICO DE MUNIZ FREIRE",
        "address": "RUA CONEGO JOSE BAZZARELLA, S/N",
        "phone": "",
        "has_nicu": false,
        "accepts_sus": true,
        "private_only": false
      }
    },
    {
      "type": "Feature",
      "geometry": {
        "type": "Point",
        "coordinates": [
          -47.986534,
          -23.986321
        ]
      },
      "properties": {
        "id": "3521007611617",
        "name": "FARMACIA MUNICIPAL DE IPERO",
        "address": "MARIO JOSE SOARES, 168",
        "phone": "32662247",
        "has_nicu": false,
        "accepts_sus": true,
        "private_only": false
      }
    },
    {
      "type": "Feature",
      "geometry": {
        "type": "Point",
        "coordinates": [
          -44.241474,
          -19.4636617
        ]
      },
      "properties": {
        "id": "3167202768534",
        "name": "SRS SETE LAGOAS",
        "address": "AVENIDA DOUTOR RENATO AZEREDO, 834",
        "phone": "(31)21073400",
        "has_nicu": false,
        "accepts_sus": true,
        "private_only": false
      }
    },
    {
      "type": "Feature",
      "geometry": {
        "type": "Point",
        "coordinates": [
          -51.4997289,
          -22.2764182
        ]
      },
      "properties": {
        "id": "3539202751267",
        "name": "UNIDADE BASICA DE SAUDE II DR PLINIO ARANTES BARRETO",
        "address": "RUA OSCAR TOLEDO CEZAR, 336",
        "phone": "(18) 3269-1080",
        "has_nicu": false,
        "accepts_sus": true,
        "private_only": false
      }
    },
    {
      "type": "Feature",
      "geometry": {
        "type": "Point",
        "coordinates": [
          -53.527525663375854,
          -27.65833888684302
        ]
      },
      "properties": {
        "id": "4306428013217",
        "name": "UBS DR FRANCISCO DE MORAES",
        "address": "RUA AMANTINO JOSE SCHIAVO, 02",
        "phone": "(55)37511056",
        "has_nicu": false,
        "accepts_sus": true,
        "private_only": false
      }
    },
    {
      "type": "Feature",
      "geometry": {
        "type": "Point",
        "coordinates": [
          -44.8837,
          -20.12998
        ]
      },
      "properties": {
        "id": "3122302194406",
        "name": "SUPERINTENDENCIA REGIONAL DE SAUDE DE DIVINOPOLIS",
        "address": "AVENIDA ANTONIO OLIMPIO DE MORAIS, 2100",
        "phone": "037-2101-2900",
        "has_nicu": false,
        "accepts_sus": true,
        "private_only": false
      }
    },
    {
      "type": "Feature",
      "geometry": {
        "type": "Point",
        "coordinates": [
          -39.036269187927246,
          -14.792849687212502
        ]
      },
      "properties": {
        "id": "2913602816725",
        "name": "NUCLEO REGIONAL DE SAUDE SUL ILHEUS SEDE",
        "address": "AVENIDA CANAVIEIRAS LADO IMPAR, 253",
        "phone": "",
        "has_nicu": false,
        "accepts_sus": true,
        "private_only": false
      }
    },
    {
      "type": "Feature",
      "geometry": {
        "type": "Point",
        "coordinates": [
          -43.31218242645264,
          -15.812588000073829
        ]
      },
      "properties": {
        "id": "3135107873050",
        "name": "FARMACIA CENTRAL",
        "address": "ELISETE SOARES DE OLIVEIRA, 57",
        "phone": "38 38215495",
        "has_nicu": false,
        "accepts_sus": true,
        "private_only": false
      }
    },
    {
      "type": "Feature",
      "geometry": {
        "type": "Point",
        "coordinates": [
          -46.899167,
          -16.360555
        ]
      },
      "properties": {
        "id": "3170402768267",
        "name": "GRS UNAI",
        "address": "RUA CALIXTO MARTINS DE MELO, S/N",
        "phone": "38 2102-4900",
        "has_nicu": false,
        "accepts_sus": true,
        "private_only": false
      }
    },
    {
      "type": "Feature",
      "geometry": {
        "type": "Point",
        "coordinates": [
          -51.34882,
          -29.22331
        ]
      },
      "properties": {
        "id": "4307909831215",
        "name": "FARMACIA MUNICIPAL",
        "address": "RUA TOMAS EDSON, 505",
        "phone": "",
        "has_nicu": false,
        "accepts_sus": true,
        "private_only": false
      }
    },
    {
      "type": "Feature",
      "geometry": {
        "type": "Point",
        "coordinates": [
          -37.716,
          -7.108
        ]
      },
      "properties": {
        "id": "2505909787356",
        "name": "FARMACIA BASICA DE EMAS",
        "address": "RUA VEREADOR MANOEL BATISTA NETO, S/N",
        "phone": "",
        "has_nicu": false,
        "accepts_sus": true,
        "private_only": false
      }
    },
    {
      "type": "Feature",
      "geometry": {
        "type": "Point",
        "coordinates": [
          -42.87947744394516,
          -20.76372252106824
        ]
      },
      "properties": {
        "id": "3171309809406",
        "name": "FARMACIA DE TODOS UNIDADE CENTRO",
        "address": "RUA MARIA GERALDA PARANHOS, 147",
        "phone": "03138912732",
        "has_nicu": false,
        "accepts_sus": true,
        "private_only": false
      }
    },
    {
      "type": "Feature",
      "geometry": {
        "type": "Point",
        "coordinates": [
          -40.49643158912659,
          -20.394061738124563
        ]
      },
      "properties": {
        "id": "3205109912843",
        "name": "UPA CABO JORGE LACERDA BALESTREIRO",
        "address": "RUA LUIZ ALVARENGA, S/N",
        "phone": "(27) 3255 2976",
        "has_nicu": false,
        "accepts_sus": true,
        "private_only": false
      }
    },
    {
      "type": "Feature",
      "geometry": {
        "type": "Point",
        "coordinates": [
          -40.55893510580063,
          -15.884961346572872
        ]
      },
      "properties": {
        "id": "3105209923330",
        "name": "UNIDADE REDE FARMACIA DE MINAS DE BANDEIRA",
        "address": "RUA PROFESSORA ARLETE CAMPANHA, 01",
        "phone": "33998481991",
        "has_nicu": false,
        "accepts_sus": true,
        "private_only": false
      }
    },
    {
      "type": "Feature",
      "geometry": {
        "type": "Point",
        "coordinates": [
          -50.439337491989136,
          -16.954454086504352
        ]
      },
      "properties": {
        "id": "5216409912371",
        "name": "CENTRAL DE ABASTECIMENTO FARMACEUTICO CAF",
        "address": "AVENIDA JK, S/N",
        "phone": "",
        "has_nicu": false,
        "accepts_sus": true,
        "private_only": false
      }
    },
    {
      "type": "Feature",
      "geometry": {
        "type": "Point",
        "coordinates": [
          -48.30893,
          -19.67295
        ]
      },
      "properties": {
        "id": "3171109929819",
        "name": "FARMACIA DE MINAS",
        "address": "AVN PADRE JULIO DE RAZZ, 505",
        "phone": "(34) 33231141",
        "has_nicu": false,
        "accepts_sus": true,
        "private_only": false
      }
    },
    {
      "type": "Feature",
      "geometry": {
        "type": "Point",
        "coordinates": [
          -55.138654,
          -27.906907
        ]
      },
      "properties": {
        "id": "4315100925047",
        "name": "FARMACIA PUBLICA",
        "address": "RUA OSVALDO CRUZ, 583",
        "phone": "5533540324",
        "has_nicu": false,
        "accepts_sus": true,
        "private_only": false
      }
    },
    {
      "type": "Feature",
      "geometry": {
        "type": "Point",
        "coordinates": [
          -51.1910212,
          -29.5221637
        ]
      },
      "properties": {
        "id": "4315140922706",
        "name": "FARMACIA MUNICIPAL DE PRESIDENTE LUCENA",
        "address": "RUA IPIRANGA, 211",
        "phone": "",
        "has_nicu": false,
        "accepts_sus": true,
        "private_only": false
      }
    },
    {
      "type": "Feature",
      "geometry": {
        "type": "Point",
        "coordinates": [
          -50.3849947,
          -22.7443786
        ]
      },
      "properties": {
        "id": "3510009453504",
        "name": "FARMACIA MUNICIPAL DE CANDIDO MOTA",
        "address": "JERONIMO FLAUZINO BARBOSA, 271",
        "phone": "",
        "has_nicu": false,
        "accepts_sus": true,
        "private_only": false
      }
    },
    {
      "type": "Feature",
      "geometry": {
        "type": "Point",
        "coordinates": [
          -35.46726,
          -6.61513
        ]
      },
      "properties": {
        "id": "2503609388060",
        "name": "FARMACIA BASICA MUNICIPAL MARIA EUGENIA SANTANA",
        "address": "RUA PREFEITO FRANCISCO CARNEIRO, 003",
        "phone": "3370-1013",
        "has_nicu": false,
        "accepts_sus": true,
        "private_only": false
      }
    },
    {
      "type": "Feature",
      "geometry": {
        "type": "Point",
        "coordinates": [
          -45.59697389602661,
          -19.46317314616486
        ]
      },
      "properties": {
        "id": "3123209378782",
        "name": "FARMACIA MUNICIPAL DE DORES DO INDAIA",
        "address": "RUA EDGARD PINTO FIUZA, 1637",
        "phone": "3735512938",
        "has_nicu": false,
        "accepts_sus": true,
        "private_only": false
      }
    },
    {
      "type": "Feature",
      "geometry": {
        "type": "Point",
        "coordinates": [
          -41.84093713760376,
          -13.643192635154575
        ]
      },
      "properties": {
        "id": "2919509615091",
        "name": "CAF CENTRAL DE ABASTECIMENTO FARMACEUTICO",
        "address": "AVENIDA DR EDILSON PONTES, S/N",
        "phone": "",
        "has_nicu": false,
        "accepts_sus": true,
        "private_only": false
      }
    },
    {
      "type": "Feature",
      "geometry": {
        "type": "Point",
        "coordinates": [
          -55.279083251953125,
          -11.980806053662306
        ]
      },
      "properties": {
        "id": "5107249612297",
        "name": "CAF CENTRAL DE ABASTECIMENTO FARMACEUTICA",
        "address": "RUA RAPOSO TAVARES, 664",
        "phone": "66 35621259",
        "has_nicu": false,
        "accepts_sus": true,
        "private_only": false
      }
    },
    {
      "type": "Feature",
      "geometry": {
        "type": "Point",
        "coordinates": [
          -46.688405,
          -23.561603
        ]
      },
      "properties": {
        "id": "3550302088576",
        "name": "HOSPITAL DE TRANSP DO EST DE SP EURYCLIDES DE JESUS ZERBINI",
        "address": "AV BRIGADEIRO LUIZ ANTONIO, 2651",
        "phone": "(11) 3170-6329",
        "has_nicu": false,
        "accepts_sus": true,
        "private_only": false
      }
    },
    {
      "type": "Feature",
      "geometry": {
        "type": "Point",
        "coordinates": [
          -50.0402328,
          -20.6945981
        ]
      },
      "properties": {
        "id": "3532602039125",
        "name": "CENTRO DE SAUDE II DE NHANDEARA",
        "address": "RUA ANTONIO BENTO DE OLIVEIRA, 456",
        "phone": "1734674900",
        "has_nicu": false,
        "accepts_sus": true,
        "private_only": false
      }
    },
    {
      "type": "Feature",
      "geometry": {
        "type": "Point",
        "coordinates": [
          -44.26062226295471,
          -21.132620507001484
        ]
      },
      "properties": {
        "id": "3162502768526",
        "name": "GRS SAO JOAO DEL REI",
        "address": "PCA CARLOS GOMES, 01",
        "phone": "(32)3322-1900",
        "has_nicu": false,
        "accepts_sus": true,
        "private_only": false
      }
    },
    {
      "type": "Feature",
      "geometry": {
        "type": "Point",
        "coordinates": [
          -55.20070910453797,
          -28.046057447690988
        ]
      },
      "properties": {
        "id": "4314552259796",
        "name": "CS SMS PIRAPO",
        "address": "RUA QUINZE DE NOVEMBRO, 1597",
        "phone": "(55)33511011",
        "has_nicu": false,
        "accepts_sus": true,
        "private_only": false
      }
    },
    {
      "type": "Feature",
      "geometry": {
        "type": "Point",
        "coordinates": [
          -47.48032718896866,
          -21.70968909487105
        ]
      },
      "properties": {
        "id": "3547502774682",
        "name": "CENTRO DE SAUDE II SANTA RITA DO PASSA QUATRO",
        "address": "RUA IGNACIO RIBEIRO, 438",
        "phone": "(19)35845278",
        "has_nicu": false,
        "accepts_sus": true,
        "private_only": false
      }
    },
    {
      "type": "Feature",
      "geometry": {
        "type": "Point",
        "coordinates": [
          -37.75949,
          -9.60354
        ]
      },
      "properties": {
        "id": "2707107977042",
        "name": "CENTRAL DE ABASTECIMENTO FARMACEUTICO CAF",
        "address": "AVENIDA BATALHA, 82",
        "phone": "",
        "has_nicu": false,
        "accepts_sus": true,
        "private_only": false
      }
    },
    {
      "type": "Feature",
      "geometry": {
        "type": "Point",
        "coordinates": [
          -39.29377326127543,
          -6.355288224309808
        ]
      },
      "properties": {
        "id": "2305509444963",
        "name": "CAF CENTRAL DE ABASTECIMENTO FARMACEUTICO DE IGUATU",
        "address": "RUA JULIO CAVALCANTE, 721",
        "phone": "",
        "has_nicu": false,
        "accepts_sus": true,
        "private_only": false
      }
    },
    {
      "type": "Feature",
      "geometry": {
        "type": "Point",
        "coordinates": [
          -53.31321716308594,
          -27.90066788188428
        ]
      },
      "properties": {
        "id": "4313709363270",
        "name": "FARMACIA MUNICIPAL",
        "address": "GENERAL OSORIO, 250",
        "phone": "",
        "has_nicu": false,
        "accepts_sus": true,
        "private_only": false
      }
    },
    {
      "type": "Feature",
      "geometry": {
        "type": "Point",
        "coordinates": [
          -57.290568351745605,
          -14.7826992427384
        ]
      },
      "properties": {
        "id": "5106239523316",
        "name": "FARMACIA MUNICIPAL DE NOVA OLIMPIA",
        "address": "RUA AMAZONAS ESQUINA COM A RUA MINAS GERAIS, S/N",
        "phone": "6533322417",
        "has_nicu": false,
        "accepts_sus": true,
        "private_only": false
      }
    },
    {
      "type": "Feature",
      "geometry": {
        "type": "Point",
        "coordinates": [
          -54.051876068115234,
          -14.430066939542316
        ]
      },
      "properties": {
        "id": "5106309503854",
        "name": "FARMACIA MUNICIPAL DE PARANATINGA",
        "address": "RUA MONTEIRO LOBATO, 337",
        "phone": "",
        "has_nicu": false,
        "accepts_sus": true,
        "private_only": false
      }
    },
    {
      "type": "Feature",
      "geometry": {
        "type": "Point",
        "coordinates": [
          -45.23303031921387,
          -18.2017943792444
        ]
      },
      "properties": {
        "id": "3169359536140",
        "name": "FARMACIA DE MINAS CENTRO",
        "address": "AVENIDA GETULIO VARGAS, 145",
        "phone": "38 3754-7230",
        "has_nicu": false,
        "accepts_sus": true,
        "private_only": false
      }
    },
    {
      "type": "Feature",
      "geometry": {
        "type": "Point",
        "coordinates": [
          -38.758623,
          -12.8754618
        ]
      },
      "properties": {
        "id": "2927309496564",
        "name": "CENTRAL DE ABASTECIMENTO FARMACEUTICA DE SALINAS",
        "address": "RUA PRESIDENTE VARGAS, S/N",
        "phone": "07536591693",
        "has_nicu": false,
        "accepts_sus": true,
        "private_only": false
      }
    },
    {
      "type": "Feature",
      "geometry": {
        "type": "Point",
        "coordinates": [
          -41.44176006317139,
          -19.823618383122238
        ]
      },
      "properties": {
        "id": "3144009453350",
        "name": "FARMACIA DE MINAS MUTUM",
        "address": "PRACA DONA MARICAS, 56",
        "phone": "3333122314",
        "has_nicu": false,
        "accepts_sus": true,
        "private_only": false
      }
    },
    {
      "type": "Feature",
      "geometry": {
        "type": "Point",
        "coordinates": [
          -56.64426058530808,
          -12.234314121191488
        ]
      },
      "properties": {
        "id": "5104549723609",
        "name": "FARMACIA BASICA MUNICIPAL",
        "address": "RUA FORTALEZA, S/N",
        "phone": "6635781288",
        "has_nicu": false,
        "accepts_sus": true,
        "private_only": false
      }
    },
    {
      "type": "Feature",
      "geometry": {
        "type": "Point",
        "coordinates": [
          -47.38871097564,
          -5.930965987294
        ]
      },
      "properties": {
        "id": "2109559764658",
        "name": "CENTRAL DE ABASTECIMENTO FARMACEUTICO",
        "address": "RUA PERNAMBUCO, S/N",
        "phone": "9935861117",
        "has_nicu": false,
        "accepts_sus": true,
        "private_only": false
      }
    },
    {
      "type": "Feature",
      "geometry": {
        "type": "Point",
        "coordinates": [
          -37.65295743942261,
          -6.435422087596161
        ]
      },
      "properties": {
        "id": "2512809765859",
        "name": "UNIDADE DE DISPENSACAO DE MEDICAMENTOS E INSUMOS",
        "address": "RUA DOUTOR ANTONIO CARNEIRO, S/N",
        "phone": "",
        "has_nicu": false,
        "accepts_sus": true,
        "private_only": false
      }
    },
    {
      "type": "Feature",
      "geometry": {
        "type": "Point",
        "coordinates": [
          -46.31601244211197,
          -22.85070662013021
        ]
      },
      "properties": {
        "id": "3125109784098",
        "name": "CAF EXTREMA MG",
        "address": "RUA FRANCISCO DE OLIVEIRA PINTO, 55",
        "phone": "",
        "has_nicu": false,
        "accepts_sus": true,
        "private_only": false
      }
    },
    {
      "type": "Feature",
      "geometry": {
        "type": "Point",
        "coordinates": [
          -38.53718519210816,
          -10.835244901001063
        ]
      },
      "properties": {
        "id": "2926609701516",
        "name": "FARMACIA BASICA MUNICIPAL",
        "address": "PRACA GETULIO VARGAS, S/N",
        "phone": "",
        "has_nicu": false,
        "accepts_sus": true,
        "private_only": false
      }
    },
    {
      "type": "Feature",
      "geometry": {
        "type": "Point",
        "coordinates": [
          -47.18748092651367,
          -1.1951485728756208
        ]
      },
      "properties": {
        "id": "1502209747303",
        "name": "CENTRAL DE ABASTECIMENTO FARMACEUTICO DE CAPANEMA CAF",
        "address": "BARAO DE CAPANEMA, S/N",
        "phone": "",
        "has_nicu": false,
        "accepts_sus": true,
        "private_only": false
      }
    },
    {
      "type": "Feature",
      "geometry": {
        "type": "Point",
        "coordinates": [
          -51.283042430877686,
          -23.277777031584147
        ]
      },
      "properties": {
        "id": "4103709711708",
        "name": "FARMACIA MUNICIPAL",
        "address": "AVENIDA INGLATERRA, 1144",
        "phone": "31740243",
        "has_nicu": false,
        "accepts_sus": true,
        "private_only": false
      }
    },
    {
      "type": "Feature",
      "geometry": {
        "type": "Point",
        "coordinates": [
          -42.8977497,
          -20.4054888
        ]
      },
      "properties": {
        "id": "3152107808607",
        "name": "FARMACIA INTEGRADA DE PONTE NOVA",
        "address": "AVENIDA GETULIO VARGAS, 810",
        "phone": "",
        "has_nicu": false,
        "accepts_sus": true,
        "private_only": false
      }
    },
    {
      "type": "Feature",
      "geometry": {
        "type": "Point",
        "coordinates": [
          -38.3001079,
          -7.9899787
        ]
      },
      "properties": {
        "id": "2613907801238",
        "name": "FARMACIA MUNICIPAL DE SERRA TALHADA",
        "address": "RUA TABELIAO TIBURTINO NOGUEIRA, 1244",
        "phone": "",
        "has_nicu": false,
        "accepts_sus": true,
        "private_only": false
      }
    },
    {
      "type": "Feature",
      "geometry": {
        "type": "Point",
        "coordinates": [
          -35.2637743,
          -7.1465425
        ]
      },
      "properties": {
        "id": "2512767813600",
        "name": "FARMACIA BASICA DE RIACHAO DO POCO",
        "address": "RUA JOAO FERREIRA ALVES, 1",
        "phone": "",
        "has_nicu": false,
        "accepts_sus": true,
        "private_only": false
      }
    },
    {
      "type": "Feature",
      "geometry": {
        "type": "Point",
        "coordinates": [
          -51.343,
          -29.479
        ]
      },
      "properties": {
        "id": "4302359976736",
        "name": "FARMACIA DE MEDICAMENTOS ESPECIAIS DE BOM PRINCIPIO",
        "address": "RUA SAO PEDRO CANISIO, 27",
        "phone": "0513648160",
        "has_nicu": false,
        "accepts_sus": true,
        "private_only": false
      }
    },
    {
      "type": "Feature",
      "geometry": {
        "type": "Point",
        "coordinates": [
          -44.58655625581741,
          -3.5601953426641604
        ]
      },
      "properties": {
        "id": "2106759885749",
        "name": "FARMACIA BASICA",
        "address": "AVENIDA DO COMERCIO, S/N",
        "phone": "(98) 3464-1139",
        "has_nicu": false,
        "accepts_sus": true,
        "private_only": false
      }
    },
    {
      "type": "Feature",
      "geometry": {
        "type": "Point",
        "coordinates": [
          -41.4048957824707,
          -18.660944088973068
        ]
      },
      "properties": {
        "id": "3141509826955",
        "name": "FARMACIA DE MINAS",
        "address": "RUA ASTOLFO SIILVA, 80",
        "phone": "",
        "has_nicu": false,
        "accepts_sus": true,
        "private_only": false
      }
    },
    {
      "type": "Feature",
      "geometry": {
        "type": "Point",
        "coordinates": [
          -51.106701817,
          -21.1331169
        ]
      },
      "properties": {
        "id": "3530109915281",
        "name": "FARMACIA DE MEDICAMENTOS ESTRATEGICOS",
        "address": "SENADOR RODOLFO MIRANDA, 1329",
        "phone": "37015029",
        "has_nicu": false,
        "accepts_sus": true,
        "private_only": false
      }
    },
    {
      "type": "Feature",
      "geometry": {
        "type": "Point",
        "coordinates": [
          -46.17972135543823,
          -17.741084169327316
        ]
      },
      "properties": {
        "id": "3136309060049",
        "name": "FARMACIA MUNICIPAL II",
        "address": "AVENIDA DONA ZICA, 780",
        "phone": "03835611777",
        "has_nicu": false,
        "accepts_sus": true,
        "private_only": false
      }
    },
    {
      "type": "Feature",
      "geometry": {
        "type": "Point",
        "coordinates": [
          -53.1716516,
          -26.8927163
        ]
      },
      "properties": {
        "id": "4204200183032",
        "name": "FARMACIA MUNICIPAL EFAPI",
        "address": "CUNHA PORA, S/N",
        "phone": "",
        "has_nicu": false,
        "accepts_sus": true,
        "private_only": false
      }
    },
    {
      "type": "Feature",
      "geometry": {
        "type": "Point",
        "coordinates": [
          -43.81414175033569,
          -17.107939127884453
        ]
      },
      "properties": {
        "id": "3107300104493",
        "name": "FARMACIA DE TODOS",
        "address": "RUA OSCAR EUZEBIO DA CRUZ, 270",
        "phone": "3832513207",
        "has_nicu": false,
        "accepts_sus": true,
        "private_only": false
      }
    },
    {
      "type": "Feature",
      "geometry": {
        "type": "Point",
        "coordinates": [
          -49.47361886501312,
          -28.747601727190293
        ]
      },
      "properties": {
        "id": "4205450837997",
        "name": "FARMACIA MUNICIPAL",
        "address": "CINQUENTENARIO LEONARDO STEINER, 153",
        "phone": "4834633510",
        "has_nicu": false,
        "accepts_sus": true,
        "private_only": false
      }
    },
    {
      "type": "Feature",
      "geometry": {
        "type": "Point",
        "coordinates": [
          -55.25488436222077,
          -13.03674248927392
        ]
      },
      "properties": {
        "id": "5106240810916",
        "name": "FARMACIA MUNICIPAL DE NOVA UBIRATA",
        "address": "AVENIDA JUSCELINO KUBITSCHEK, 00",
        "phone": "",
        "has_nicu": false,
        "accepts_sus": true,
        "private_only": false
      }
    },
    {
      "type": "Feature",
      "geometry": {
        "type": "Point",
        "coordinates": [
          -49.679532051086426,
          -15.506701813031858
        ]
      },
      "properties": {
        "id": "5221700696315",
        "name": "CENTRO DE DISTRIBUICAO FARMACEUTICA URUANA",
        "address": "AVENIDA JODE ALVES TOLEDO, S/N",
        "phone": "6233441735",
        "has_nicu": false,
        "accepts_sus": true,
        "private_only": false
      }
    },
    {
      "type": "Feature",
      "geometry": {
        "type": "Point",
        "coordinates": [
          -44.24331564925584,
          -5.321717388181236
        ]
      },
      "properties": {
        "id": "2104600720224",
        "name": "FARMACIA BASICA MUNICIPAL DE GOVERNADOR EUGENIO BARROS",
        "address": "AVENIDA 11 DE MARCO, 00",
        "phone": "",
        "has_nicu": false,
        "accepts_sus": true,
        "private_only": false
      }
    },
    {
      "type": "Feature",
      "geometry": {
        "type": "Point",
        "coordinates": [
          -44.44175720214844,
          -5.0427248314556685
        ]
      },
      "properties": {
        "id": "2103809742115",
        "name": "FARMACIA BASICA DE DOM PEDRO",
        "address": "RUA HUMBERTO DE CAMPOS, S/N",
        "phone": "",
        "has_nicu": false,
        "accepts_sus": true,
        "private_only": false
      }
    },
    {
      "type": "Feature",
      "geometry": {
        "type": "Point",
        "coordinates": [
          -49.8590005,
          -24.8174846
        ]
      },
      "properties": {
        "id": "4104909760083",
        "name": "FARMACIA BASICA MUNICIPAL ABAPAN",
        "address": "PR 090 AREA RURAL, S/N",
        "phone": "4232501382",
        "has_nicu": false,
        "accepts_sus": true,
        "private_only": false
      }
    },
    {
      "type": "Feature",
      "geometry": {
        "type": "Point",
        "coordinates": [
          -39.002,
          -13.079
        ]
      },
      "properties": {
        "id": "2902309700315",
        "name": "CENTRO DE ABASTECIMENTO FARMACEUTICO",
        "address": "RUA DA 02 DE MARCO, S/N",
        "phone": "",
        "has_nicu": false,
        "accepts_sus": true,
        "private_only": false
      }
    },
    {
      "type": "Feature",
      "geometry": {
        "type": "Point",
        "coordinates": [
          -45.6529518,
          -3.2776255
        ]
      },
      "properties": {
        "id": "2114009765018",
        "name": "FARMACIA BASICA MUNICIPAL",
        "address": "RUA DO SOL, S/N",
        "phone": "",
        "has_nicu": false,
        "accepts_sus": true,
        "private_only": false
      }
    },
    {
      "type": "Feature",
      "geometry": {
        "type": "Point",
        "coordinates": [
          -52.67324209213257,
          -26.23424429019025
        ]
      },
      "properties": {
        "id": "4118509737375",
        "name": "FARMACIA CENTRAL DE PATO BRANCO",
        "address": "RUA PARANA, 340",
        "phone": "46 3213 1719",
        "has_nicu": false,
        "accepts_sus": true,
        "private_only": false
      }
    },
    {
      "type": "Feature",
      "geometry": {
        "type": "Point",
        "coordinates": [
          -49.5863811,
          -27.9994783
        ]
      },
      "properties": {
        "id": "4218909729550",
        "name": "FARMACIA PUBLICA MUNICIPAL DE URUBICI",
        "address": "RUA CELESTE FRANCISCO GHIZONI, 400",
        "phone": "4932785691",
        "has_nicu": false,
        "accepts_sus": true,
        "private_only": false
      }
    },
    {
      "type": "Feature",
      "geometry": {
        "type": "Point",
        "coordinates": [
          -42.81190752983093,
          -5.089533553914806
        ]
      },
      "properties": {
        "id": "2211002777606",
        "name": "FARMACIA DO POVO MEDICAMENTOS ESPECIALIZADOS",
        "address": "RUA DAVID CALDAS, 398",
        "phone": "86 3216 3654",
        "has_nicu": false,
        "accepts_sus": true,
        "private_only": false
      }
    },
    {
      "type": "Feature",
      "geometry": {
        "type": "Point",
        "coordinates": [
          -35.9822416305542,
          -8.288320790748301
        ]
      },
      "properties": {
        "id": "2604109899685",
        "name": "FARMACIA CARUARU SAO FRANCISCO III",
        "address": "AV VERA CRUZ, 689",
        "phone": "",
        "has_nicu": false,
        "accepts_sus": true,
        "private_only": false
      }
    },
    {
      "type": "Feature",
      "geometry": {
        "type": "Point",
        "coordinates": [
          -53.767688,
          -28.239126
        ]
      },
      "properties": {
        "id": "4300202260255",
        "name": "UNIDADE DE SAUDE 01",
        "address": "RUA LUIZ FOGLIATTO, S/N",
        "phone": "(55) 3387-1386",
        "has_nicu": false,
        "accepts_sus": true,
        "private_only": false
      }
    },
    {
      "type": "Feature",
      "geometry": {
        "type": "Point",
        "coordinates": [
          -47.70830154418945,
          -23.11066110425061
        ]
      },
      "properties": {
        "id": "3554509788964",
        "name": "FARMACIA MUNICIPAL LUIS CARLOS ALVES LIMA",
        "address": "AV DR ALBERTO SAN JUAN, 280",
        "phone": "",
        "has_nicu": false,
        "accepts_sus": true,
        "private_only": false
      }
    },
    {
      "type": "Feature",
      "geometry": {
        "type": "Point",
        "coordinates": [
          -39.867,
          -11.412
        ]
      },
      "properties": {
        "id": "2929379794719",
        "name": "FARMACIA BASICA MUNICIPAL FBM",
        "address": "PRACA ARISTOTELES BARROS RIOS, S/N",
        "phone": "",
        "has_nicu": false,
        "accepts_sus": true,
        "private_only": false
      }
    },
    {
      "type": "Feature",
      "geometry": {
        "type": "Point",
        "coordinates": [
          -35.997289,
          -9.252316
        ]
      },
      "properties": {
        "id": "2701109775897",
        "name": "FARMACIA CENTRAL II",
        "address": "CONJUNTO RAIMUNDO NONATO LOPES, S/N",
        "phone": "",
        "has_nicu": false,
        "accepts_sus": true,
        "private_only": false
      }
    },
    {
      "type": "Feature",
      "geometry": {
        "type": "Point",
        "coordinates": [
          -53.780533445390105,
          -27.8536008
        ]
      },
      "properties": {
        "id": "4317802260263",
        "name": "SECRETARIA MUNICIPAL DE SAUDE DE SANTO AUGUSTO",
        "address": "RUA FLORESTA, 1187",
        "phone": "(55)37811512",
        "has_nicu": false,
        "accepts_sus": true,
        "private_only": false
      }
    },
    {
      "type": "Feature",
      "geometry": {
        "type": "Point",
        "coordinates": [
          -52.478320598602295,
          -31.771703512625404
        ]
      },
      "properties": {
        "id": "4304669794301",
        "name": "FARMACIA MUNICIPAL DE SAUDE DE CAPAO DO LEAO",
        "address": "AV PRESIDENTE JUSCELINO K DE OLIVEIRA, 2656",
        "phone": "32751766",
        "has_nicu": false,
        "accepts_sus": true,
        "private_only": false
      }
    },
    {
      "type": "Feature",
      "geometry": {
        "type": "Point",
        "coordinates": [
          -35.997289,
          -9.2523166
        ]
      },
      "properties": {
        "id": "2701109874623",
        "name": "FARMACIA CENTRAL I",
        "address": "RUA EURICO MIRANDA DA COSTA, S/N",
        "phone": "",
        "has_nicu": false,
        "accepts_sus": true,
        "private_only": false
      }
    },
    {
      "type": "Feature",
      "geometry": {
        "type": "Point",
        "coordinates": [
          -48.5958,
          -23.7977
        ]
      },
      "properties": {
        "id": "3508009809198",
        "name": "DISPENSARIO DE MEDICAMENTOS MUNICIPAL DE BURI",
        "address": "RUA FORTUNATO LOPES FERREIRA DE ALBUQUERQUE, 38",
        "phone": "1535462320",
        "has_nicu": false,
        "accepts_sus": true,
        "private_only": false
      }
    },
    {
      "type": "Feature",
      "geometry": {
        "type": "Point",
        "coordinates": [
          -42.49777793884277,
          -3.490247194710768
        ]
      },
      "properties": {
        "id": "2205859851046",
        "name": "FARMACIA BASICA",
        "address": "AVENIDA JOSE RODRIGUES, S/N",
        "phone": "",
        "has_nicu": false,
        "accepts_sus": true,
        "private_only": false
      }
    },
    {
      "type": "Feature",
      "geometry": {
        "type": "Point",
        "coordinates": [
          -47.449548840522766,
          -23.544469702640736
        ]
      },
      "properties": {
        "id": "3557009785531",
        "name": "FARMACIA DE COMPONENTES ESPECIAIS VOTORANTIM",
        "address": "RUA SEGUNDO LOPES CARMONA, 249",
        "phone": "(15) 3243-4604",
        "has_nicu": false,
        "accepts_sus": true,
        "private_only": false
      }
    },
    {
      "type": "Feature",
      "geometry": {
        "type": "Point",
        "coordinates": [
          -47.99798011779785,
          -23.87453613830369
        ]
      },
      "properties": {
        "id": "3550207650353",
        "name": "FARMACIA MUNICIPAL",
        "address": "ANTONIO FOGACA DE ALMEIDA, 420",
        "phone": "015-32791222",
        "has_nicu": false,
        "accepts_sus": true,
        "private_only": false
      }
    },
    {
      "type": "Feature",
      "geometry": {
        "type": "Point",
        "coordinates": [
          -44.586167335510254,
          -5.0541280903231005
        ]
      },
      "properties": {
        "id": "2111257672764",
        "name": "FARMACIA BASICA DE SAO JOSE DOS BASILIOS",
        "address": "PRACA SAO JOSE, S/N",
        "phone": "98",
        "has_nicu": false,
        "accepts_sus": true,
        "private_only": false
      }
    },
    {
      "type": "Feature",
      "geometry": {
        "type": "Point",
        "coordinates": [
          -35.138611793518066,
          -6.839041796407209
        ]
      },
      "properties": {
        "id": "2508907666772",
        "name": "HOSPITAL GERAL DE MAMANGUAPE",
        "address": "WALFRIDO DE ALMEIDA, S/N",
        "phone": "",
        "has_nicu": false,
        "accepts_sus": true,
        "private_only": false
      }
    },
    {
      "type": "Feature",
      "geometry": {
        "type": "Point",
        "coordinates": [
          -48.3436137,
          -1.3508264
        ]
      },
      "properties": {
        "id": "1504427671466",
        "name": "UDME HDP",
        "address": "AVENIDA JOAO PAULO II, 71",
        "phone": "",
        "has_nicu": false,
        "accepts_sus": true,
        "private_only": false
      }
    },
    {
      "type": "Feature",
      "geometry": {
        "type": "Point",
        "coordinates": [
          -40.579090708938175,
          -14.861130844930196
        ]
      },
      "properties": {
        "id": "2902907666551",
        "name": "FARMACIA BASICA DE BARRA DO CHOCA",
        "address": "RUA JUVINO OLIVEIRA, 326",
        "phone": "7734363020",
        "has_nicu": false,
        "accepts_sus": true,
        "private_only": false
      }
    },
    {
      "type": "Feature",
      "geometry": {
        "type": "Point",
        "coordinates": [
          -51.33127927780152,
          -30.11394876080303
        ]
      },
      "properties": {
        "id": "4309302832038",
        "name": "FARMACIA",
        "address": "RUA SAO PAULO, 800",
        "phone": "",
        "has_nicu": false,
        "accepts_sus": true,
        "private_only": false
      }
    },
    {
      "type": "Feature",
      "geometry": {
        "type": "Point",
        "coordinates": [
          -48.5169353,
          -27.5999552
        ]
      },
      "properties": {
        "id": "4205402946203",
        "name": "FARMACIA ESCOLA UFSC",
        "address": "RUA DELFINO CONTI, S/N",
        "phone": "48 3721 4455",
        "has_nicu": false,
        "accepts_sus": true,
        "private_only": false
      }
    },
    {
      "type": "Feature",
      "geometry": {
        "type": "Point",
        "coordinates": [
          -47.63671875,
          -22.14670778001262
        ]
      },
      "properties": {
        "id": "3543902998211",
        "name": "FARMACIA DE ALTO CUSTO DE RIO CLARO",
        "address": "RUA 02, 238",
        "phone": "1935338949",
        "has_nicu": false,
        "accepts_sus": true,
        "private_only": false
      }
    },
    {
      "type": "Feature",
      "geometry": {
        "type": "Point",
        "coordinates": [
          -47.20170736312866,
          -1.1961568638817726
        ]
      },
      "properties": {
        "id": "1502203256332",
        "name": "FARMACIA MUNICIPAL DE CAPANEMA",
        "address": "BARAO DE CAPANEMA, S/N",
        "phone": "",
        "has_nicu": false,
        "accepts_sus": true,
        "private_only": false
      }
    },
    {
      "type": "Feature",
      "geometry": {
        "type": "Point",
        "coordinates": [
          -43.7769341468811,
          -21.22108115835767
        ]
      },
      "properties": {
        "id": "3105602911485",
        "name": "FARMACIA ALTO CUSTO",
        "address": "AV PEREIRA TEIXEIRA, 633",
        "phone": "",
        "has_nicu": false,
        "accepts_sus": true,
        "private_only": false
      }
    },
    {
      "type": "Feature",
      "geometry": {
        "type": "Point",
        "coordinates": [
          -45.7050347328186,
          -20.1733791173204
        ]
      },
      "properties": {
        "id": "3130302902303",
        "name": "FARMACIA DE MINAS",
        "address": "RUA19, 157",
        "phone": "3733531112",
        "has_nicu": false,
        "accepts_sus": true,
        "private_only": false
      }
    },
    {
      "type": "Feature",
      "geometry": {
        "type": "Point",
        "coordinates": [
          -48.2972236,
          -20.8742635
        ]
      },
      "properties": {
        "id": "3556802900491",
        "name": "FARMACIA MUNICIPAL II",
        "address": "PRACA FRANCISCO BRAGA, 16",
        "phone": "",
        "has_nicu": false,
        "accepts_sus": true,
        "private_only": false
      }
    },
    {
      "type": "Feature",
      "geometry": {
        "type": "Point",
        "coordinates": [
          -40.93422710895538,
          -20.86199992186132
        ]
      },
      "properties": {
        "id": "3204409851259",
        "name": "AMBULATORIO MUNICIPAL",
        "address": "RUA CORONEL JOAQUIM ALVES, 01",
        "phone": "(28)3533-0330",
        "has_nicu": false,
        "accepts_sus": true,
        "private_only": false
      }
    },
    {
      "type": "Feature",
      "geometry": {
        "type": "Point",
        "coordinates": [
          -41.13478660583496,
          -20.3399994795297
        ]
      },
      "properties": {
        "id": "3205060225460",
        "name": "CENTRAL DE ABASTECIMENTO FARMACEUTICO CAF VNI",
        "address": "AV JOSE MINETE, 486",
        "phone": "",
        "has_nicu": false,
        "accepts_sus": true,
        "private_only": false
      }
    },
    {
      "type": "Feature",
      "geometry": {
        "type": "Point",
        "coordinates": [
          -36.82698726654053,
          -7.207239305684517
        ]
      },
      "properties": {
        "id": "2516500220388",
        "name": "FARMACIA BASICA ALFEU QUEIROZ",
        "address": "RUA 23 DE MAIO, S/N",
        "phone": "",
        "has_nicu": false,
        "accepts_sus": true,
        "private_only": false
      }
    },
    {
      "type": "Feature",
      "geometry": {
        "type": "Point",
        "coordinates": [
          -42.07428932189941,
          -14.41418989087608
        ]
      },
      "properties": {
        "id": "2926809176845",
        "name": "FARMACIA BASICA MUNICIPAL DE RIO DO ANTONIO",
        "address": "RUA NOSSA SENHORACDAS GRACAS, S/N",
        "phone": "",
        "has_nicu": false,
        "accepts_sus": true,
        "private_only": false
      }
    },
    {
      "type": "Feature",
      "geometry": {
        "type": "Point",
        "coordinates": [
          -48.103145,
          -15.812864
        ]
      },
      "properties": {
        "id": "5300100255122",
        "name": "PROGRAMA MEDICAMENTO EM CASA",
        "address": "QUADRA QNM 18 20 BLOCO B, S/N",
        "phone": "(61)2017-1145 R:8192",
        "has_nicu": false,
        "accepts_sus": true,
        "private_only": false
      }
    },
    {
      "type": "Feature",
      "geometry": {
        "type": "Point",
        "coordinates": [
          -50.17401337623596,
          -22.108235316021595
        ]
      },
      "properties": {
        "id": "3540009762361",
        "name": "CENTRAL DE MEDICAMENTOS",
        "address": "RUA JOAO DA COSTA VIEIRA, 596",
        "phone": "14 3405-2800",
        "has_nicu": false,
        "accepts_sus": true,
        "private_only": false
      }
    },
    {
      "type": "Feature",
      "geometry": {
        "type": "Point",
        "coordinates": [
          -61.13937735557556,
          4.482691100990415
        ]
      },
      "properties": {
        "id": "1400459979123",
        "name": "CENTRO DE ASSISTENCIA FARMACEUTICA CAF 1",
        "address": "RUA ESTER DE OLIVEIRA SEABRA, S/N",
        "phone": "",
        "has_nicu": false,
        "accepts_sus": true,
        "private_only": false
      }
    },
    {
      "type": "Feature",
      "geometry": {
        "type": "Point",
        "coordinates": [
          -45.4689359664917,
          -22.42130372376653
        ]
      },
      "properties": {
        "id": "3132409967575",
        "name": "FARMACIA INTEGRADA DE ITAJUBA",
        "address": "AVENIDA DOUTOR HENRIQUETO CARDINALLI, 911",
        "phone": "(35) 3692-1859",
        "has_nicu": false,
        "accepts_sus": true,
        "private_only": false
      }
    },
    {
      "type": "Feature",
      "geometry": {
        "type": "Point",
        "coordinates": [
          -59.946899,
          -3.0551965
        ]
      },
      "properties": {
        "id": "1302603042626",
        "name": "POLICLINICA ZENO LANZINI",
        "address": "AUTAZ MIRIM, 7035",
        "phone": "92 36436300",
        "has_nicu": false,
        "accepts_sus": true,
        "private_only": false
      }
    },
    {
      "type": "Feature",
      "geometry": {
        "type": "Point",
        "coordinates": [
          -51.344848573207855,
          -20.42889796155557
        ]
      },
      "properties": {
        "id": "3520446404634",
        "name": "SECRETARIA MUNICIPAL DE SAUDE",
        "address": "PASSEIO NITEROI, 222",
        "phone": "",
        "has_nicu": false,
        "accepts_sus": true,
        "private_only": false
      }
    },
    {
      "type": "Feature",
      "geometry": {
        "type": "Point",
        "coordinates": [
          -34.9014497,
          -7.9115132
        ]
      },
      "properties": {
        "id": "2600059963863",
        "name": "FARMACIA CENTRAL DE ABREU E LIMA",
        "address": "RUA SAO CRISTOVAO, 61",
        "phone": "",
        "has_nicu": false,
        "accepts_sus": true,
        "private_only": false
      }
    },
    {
      "type": "Feature",
      "geometry": {
        "type": "Point",
        "coordinates": [
          -40.50117373466492,
          -7.583241792180732
        ]
      },
      "properties": {
        "id": "2601109841628",
        "name": "CAF CENTRAL DE ABASTECIMENTO FARMACEUTICO ARARIPINA",
        "address": "RUA MARCOS VIEIRA DE ALENCAR, 100",
        "phone": "",
        "has_nicu": false,
        "accepts_sus": true,
        "private_only": false
      }
    },
    {
      "type": "Feature",
      "geometry": {
        "type": "Point",
        "coordinates": [
          -48.597394,
          -23.799383
        ]
      },
      "properties": {
        "id": "3508009810277",
        "name": "FARMACIA DE ALTO CUSTO E ACAO JUDICIAL",
        "address": "RUA FORTUNATO FERREIRA DE ALBUQUERQUE, 39",
        "phone": "1535462302",
        "has_nicu": false,
        "accepts_sus": true,
        "private_only": false
      }
    },
    {
      "type": "Feature",
      "geometry": {
        "type": "Point",
        "coordinates": [
          -44.394850730896,
          -15.604623574344457
        ]
      },
      "properties": {
        "id": "3149159881484",
        "name": "FARMACIA BASICA DE PEDRA DE MARIA DA CRUZ",
        "address": "RUA AURELIANO GONCALVES SIQUEIRA, 18",
        "phone": "",
        "has_nicu": false,
        "accepts_sus": true,
        "private_only": false
      }
    },
    {
      "type": "Feature",
      "geometry": {
        "type": "Point",
        "coordinates": [
          -42.87260055541992,
          -15.152189365949011
        ]
      },
      "properties": {
        "id": "3142900952761",
        "name": "FARMACIA DE MINAS MARIA ELVIRIA MACHADO TELES TEIXEIRA",
        "address": "RUA DEMETRIO FERNANDES DOS ANJOS, 29",
        "phone": "",
        "has_nicu": false,
        "accepts_sus": true,
        "private_only": false
      }
    },
    {
      "type": "Feature",
      "geometry": {
        "type": "Point",
        "coordinates": [
          -63.033435344696045,
          -9.912228506448322
        ]
      },
      "properties": {
        "id": "1100025982901",
        "name": "FARMACIA MUNICIPAL",
        "address": "AV TANCREDO NEVES, 1586",
        "phone": "35352337",
        "has_nicu": false,
        "accepts_sus": true,
        "private_only": false
      }
    },
    {
      "type": "Feature",
      "geometry": {
        "type": "Point",
        "coordinates": [
          -41.1278088,
          -20.3315414
        ]
      },
      "properties": {
        "id": "3205066845738",
        "name": "UNIDADE DE SAUDE DA FAMILIA DO BAIRRO MINETE",
        "address": "AVENIDA JOSE MINETE, 486",
        "phone": "28 3546-3418",
        "has_nicu": false,
        "accepts_sus": true,
        "private_only": false
      }
    },
    {
      "type": "Feature",
      "geometry": {
        "type": "Point",
        "coordinates": [
          -35.81313371658325,
          -5.540171801886447
        ]
      },
      "properties": {
        "id": "2405809001670",
        "name": "CENTRAL DE ABASTECIMENTO FARMACEUTICO CAF",
        "address": "RUA 29 DE OUTUBRO, 22",
        "phone": "",
        "has_nicu": false,
        "accepts_sus": true,
        "private_only": false
      }
    },
    {
      "type": "Feature",
      "geometry": {
        "type": "Point",
        "coordinates": [
          -57.915,
          -15.608
        ]
      },
      "properties": {
        "id": "5103437997388",
        "name": "FARMACIA BASICA MUNICIPAL",
        "address": "RUA MINAS GERAIS, S/N",
        "phone": "6532731205",
        "has_nicu": false,
        "accepts_sus": true,
        "private_only": false
      }
    },
    {
      "type": "Feature",
      "geometry": {
        "type": "Point",
        "coordinates": [
          -39.42924499511719,
          -12.764447092576225
        ]
      },
      "properties": {
        "id": "2907309012567",
        "name": "CAF CENTRAL DE ABASTECIMENTO FARMACEUTICO",
        "address": "RUA DR OSVALDO, S/N",
        "phone": "",
        "has_nicu": false,
        "accepts_sus": true,
        "private_only": false
      }
    },
    {
      "type": "Feature",
      "geometry": {
        "type": "Point",
        "coordinates": [
          -45.08473822975712,
          -19.9525153196773
        ]
      },
      "properties": {
        "id": "3149709021264",
        "name": "FARMACIA DE MINAS PERDIGAO MG",
        "address": "AVENIDA 12 DE DEZEMBRO, 462",
        "phone": "37-3287-1946",
        "has_nicu": false,
        "accepts_sus": true,
        "private_only": false
      }
    },
    {
      "type": "Feature",
      "geometry": {
        "type": "Point",
        "coordinates": [
          -58.353023,
          -15.471031
        ]
      },
      "properties": {
        "id": "5101259036296",
        "name": "FARMACIA MUNICIPAL DE ARAPUTANGA",
        "address": "RUA ARTHUR FRANCISCO XAVIER, S/N",
        "phone": "",
        "has_nicu": false,
        "accepts_sus": true,
        "private_only": false
      }
    },
    {
      "type": "Feature",
      "geometry": {
        "type": "Point",
        "coordinates": [
          -45.12001276,
          -20.15835397
        ]
      },
      "properties": {
        "id": "3148909037942",
        "name": "FARMACIA BASICA MUNICIPAL DR JOSE LUCIO DA SILVA",
        "address": "RUA RIO DE JANEIRO, 51",
        "phone": "3733441159",
        "has_nicu": false,
        "accepts_sus": true,
        "private_only": false
      }
    },
    {
      "type": "Feature",
      "geometry": {
        "type": "Point",
        "coordinates": [
          -39.1053416,
          -13.9443652
        ]
      },
      "properties": {
        "id": "2905809237348",
        "name": "CENTRAL ABASTECIMENTO FARMACEUTICO DE CAMAMU",
        "address": "RUA 27 DE JUNHO, 100",
        "phone": "",
        "has_nicu": false,
        "accepts_sus": true,
        "private_only": false
      }
    },
    {
      "type": "Feature",
      "geometry": {
        "type": "Point",
        "coordinates": [
          -57.535,
          -9.982
        ]
      },
      "properties": {
        "id": "5108959169156",
        "name": "CENTRAL DE ABASTECIMENTO FARMACEUTICO DE NOVA MONTE VERDE",
        "address": "MANOEL RODRIGUES DE SOUZA, S/N",
        "phone": "",
        "has_nicu": false,
        "accepts_sus": true,
        "private_only": false
      }
    },
    {
      "type": "Feature",
      "geometry": {
        "type": "Point",
        "coordinates": [
          -49.168453216552734,
          -28.272410251657863
        ]
      },
      "properties": {
        "id": "4202809848177",
        "name": "SAE SERVICO MUNICIPAL DE ASSISTENCIA ESPECIALIZADA",
        "address": "RUA WILSON WESPTHAL, 233",
        "phone": "(48) 3658-8239",
        "has_nicu": false,
        "accepts_sus": true,
        "private_only": false
      }
    },
    {
      "type": "Feature",
      "geometry": {
        "type": "Point",
        "coordinates": [
          -39.1177709041343,
          -7.536076596299827
        ]
      },
      "properties": {
        "id": "2311109814019",
        "name": "FARMACIA BASICA DE PORTEIRAS",
        "address": "RUA JOSE SOARE, 43",
        "phone": "",
        "has_nicu": false,
        "accepts_sus": true,
        "private_only": false
      }
    },
    {
      "type": "Feature",
      "geometry": {
        "type": "Point",
        "coordinates": [
          -55.71061849594116,
          -10.639717613543782
        ]
      },
      "properties": {
        "id": "5106219723560",
        "name": "FARMACIA BASICA CENTRAL",
        "address": "AVENIDA SAO PAULO, 111",
        "phone": "6635511481",
        "has_nicu": false,
        "accepts_sus": true,
        "private_only": false
      }
    },
    {
      "type": "Feature",
      "geometry": {
        "type": "Point",
        "coordinates": [
          -61.4500093460083,
          -11.434809985073786
        ]
      },
      "properties": {
        "id": "1100049760334",
        "name": "FARMACIA CENTRAL DE CACOAL",
        "address": "AV CUIABA, S/N",
        "phone": "",
        "has_nicu": false,
        "accepts_sus": true,
        "private_only": false
      }
    },
    {
      "type": "Feature",
      "geometry": {
        "type": "Point",
        "coordinates": [
          -47.6244611,
          -16.777174
        ]
      },
      "properties": {
        "id": "5206209726802",
        "name": "CENTRAL DE ABASTECIMENTO FARMACEUTICO",
        "address": "RUA ARAGUAIA, 13",
        "phone": "",
        "has_nicu": false,
        "accepts_sus": true,
        "private_only": false
      }
    },
    {
      "type": "Feature",
      "geometry": {
        "type": "Point",
        "coordinates": [
          -38.49193096160889,
          -13.00781142712945
        ]
      },
      "properties": {
        "id": "2927407824858",
        "name": "CENTRO DE SAUDE MENTAL OSWALDO CAMARGO",
        "address": "RUA ITABUNA, 02",
        "phone": "(71) 3202-0778",
        "has_nicu": false,
        "accepts_sus": true,
        "private_only": false
      }
    },
    {
      "type": "Feature",
      "geometry": {
        "type": "Point",
        "coordinates": [
          -52.047986,
          -23.464565
        ]
      },
      "properties": {
        "id": "4117507828241",
        "name": "FARMACIA MUNICIPAL DE PAICANDU",
        "address": "CONEGO JOSE JESU FLOR, 103",
        "phone": "(44)3125-1220",
        "has_nicu": false,
        "accepts_sus": true,
        "private_only": false
      }
    },
    {
      "type": "Feature",
      "geometry": {
        "type": "Point",
        "coordinates": [
          -60.8091684,
          -13.1888981
        ]
      },
      "properties": {
        "id": "1100057854072",
        "name": "FARMACIA BASICA MUNICIPAL",
        "address": "AV DAS NACOES, 2073",
        "phone": "69 99552411",
        "has_nicu": false,
        "accepts_sus": true,
        "private_only": false
      }
    },
    {
      "type": "Feature",
      "geometry": {
        "type": "Point",
        "coordinates": [
          -59.9547417,
          -3.040025342
        ]
      },
      "properties": {
        "id": "1302607847866",
        "name": "USF FATIMA ANDRADE",
        "address": "RUA INHAPIM, S/N",
        "phone": "92 3645-3314",
        "has_nicu": false,
        "accepts_sus": true,
        "private_only": false
      }
    },
    {
      "type": "Feature",
      "geometry": {
        "type": "Point",
        "coordinates": [
          -47.5333321,
          -19.312389
        ]
      },
      "properties": {
        "id": "3157707831722",
        "name": "FARMACIA DE MINAS",
        "address": "RUA FERNANDO PORTELA, 610",
        "phone": "34 -33542250",
        "has_nicu": false,
        "accepts_sus": true,
        "private_only": false
      }
    },
    {
      "type": "Feature",
      "geometry": {
        "type": "Point",
        "coordinates": [
          -38.7071788,
          -4.2245922
        ]
      },
      "properties": {
        "id": "2300157964889",
        "name": "CENTRAL DE ABASTECIMENTO FARMACEUTICO CAF",
        "address": "RUA PAULO ALVES, S/N",
        "phone": "",
        "has_nicu": false,
        "accepts_sus": true,
        "private_only": false
      }
    },
    {
      "type": "Feature",
      "geometry": {
        "type": "Point",
        "coordinates": [
          -49.09704208374024,
          -3.8429739141200177
        ]
      },
      "properties": {
        "id": "1503097946996",
        "name": "ALMOXARIFADO CENTRAL DE MEDICAMENTOS",
        "address": "AVENIDA TANCREDO NEVES, S/N",
        "phone": "",
        "has_nicu": false,
        "accepts_sus": true,
        "private_only": false
      }
    },
    {
      "type": "Feature",
      "geometry": {
        "type": "Point",
        "coordinates": [
          -49.313507080078125,
          -23.007621223594164
        ]
      },
      "properties": {
        "id": "3528609511628",
        "name": "DISPENSARIO MUNICIPAL DE MEDICAMENTOS",
        "address": "RUA RIO DE JANEIRO, 1170",
        "phone": "14-3356-9210",
        "has_nicu": false,
        "accepts_sus": true,
        "private_only": false
      }
    },
    {
      "type": "Feature",
      "geometry": {
        "type": "Point",
        "coordinates": [
          -46.9306548,
          -19.5930777
        ]
      },
      "properties": {
        "id": "3104009322701",
        "name": "CENTRO DE ASSISTENCIA FARMACEUTICA",
        "address": "JOAQUIM ALVES BARCELOS, 435",
        "phone": "36612141",
        "has_nicu": false,
        "accepts_sus": true,
        "private_only": false
      }
    },
    {
      "type": "Feature",
      "geometry": {
        "type": "Point",
        "coordinates": [
          -43.7733019,
          -21.2279249
        ]
      },
      "properties": {
        "id": "3105609309500",
        "name": "FARMACIA BASICA MUNICIPAL",
        "address": "PRACA CONDE DE PRADOS, 15",
        "phone": "",
        "has_nicu": false,
        "accepts_sus": true,
        "private_only": false
      }
    },
    {
      "type": "Feature",
      "geometry": {
        "type": "Point",
        "coordinates": [
          -50.73342239335528,
          -21.91976461344997
        ]
      },
      "properties": {
        "id": "3505809341854",
        "name": "CEME DISPENSACAO",
        "address": "RUA PRESIDENTE VARGAS, 498",
        "phone": "",
        "has_nicu": false,
        "accepts_sus": true,
        "private_only": false
      }
    },
    {
      "type": "Feature",
      "geometry": {
        "type": "Point",
        "coordinates": [
          -48.66801202297211,
          -27.644824975110943
        ]
      },
      "properties": {
        "id": "4211909270833",
        "name": "ALMOXARIFADO DE MEDICAMENTOS",
        "address": "JOAO BORN, 1830",
        "phone": "48 30475599",
        "has_nicu": false,
        "accepts_sus": true,
        "private_only": false
      }
    },
    {
      "type": "Feature",
      "geometry": {
        "type": "Point",
        "coordinates": [
          -49.0964507,
          -16.4860908
        ]
      },
      "properties": {
        "id": "5221194084993",
        "name": "FARMACIA BASICA MUNICIPAL",
        "address": "RUA SANTOS DUMONT, S/N",
        "phone": "",
        "has_nicu": false,
        "accepts_sus": true,
        "private_only": false
      }
    },
    {
      "type": "Feature",
      "geometry": {
        "type": "Point",
        "coordinates": [
          -50.574660301208496,
          -22.745452730782095
        ]
      },
      "properties": {
        "id": "3553950692824",
        "name": "FARMACIA MUNICIPAL DE TARUMA",
        "address": "AVENIDA TARUMA, 360",
        "phone": "",
        "has_nicu": false,
        "accepts_sus": true,
        "private_only": false
      }
    },
    {
      "type": "Feature",
      "geometry": {
        "type": "Point",
        "coordinates": [
          -41.5645408,
          -21.1570788
        ]
      },
      "properties": {
        "id": "3200500717908",
        "name": "FARMACIA MUNICIPAL",
        "address": "RUA JOAO MIRANDA, 06",
        "phone": "2835570097",
        "has_nicu": false,
        "accepts_sus": true,
        "private_only": false
      }
    },
    {
      "type": "Feature",
      "geometry": {
        "type": "Point",
        "coordinates": [
          -44.166669845581055,
          -16.251233227759517
        ]
      },
      "properties": {
        "id": "3142000904988",
        "name": "FARMACIA DE MINAS",
        "address": "RUA MUNIZ PEREIRA, 81",
        "phone": "",
        "has_nicu": false,
        "accepts_sus": true,
        "private_only": false
      }
    },
    {
      "type": "Feature",
      "geometry": {
        "type": "Point",
        "coordinates": [
          -53.219404220581055,
          -17.31557104597363
        ]
      },
      "properties": {
        "id": "5100309372210",
        "name": "FARMACIA MUNICIPAL DE ALTO ARAGUAIA",
        "address": "RUA QUINTINO BOCAIUVA, 682",
        "phone": "",
        "has_nicu": false,
        "accepts_sus": true,
        "private_only": false
      }
    },
    {
      "type": "Feature",
      "geometry": {
        "type": "Point",
        "coordinates": [
          -49.43774700164795,
          -16.75330402312402
        ]
      },
      "properties": {
        "id": "5200059570306",
        "name": "FARMACIA BASICA MUNICIPAL DE ABADIA DE GOIAS",
        "address": "AV COMERCIAL, S/N",
        "phone": "6235031162",
        "has_nicu": false,
        "accepts_sus": true,
        "private_only": false
      }
    },
    {
      "type": "Feature",
      "geometry": {
        "type": "Point",
        "coordinates": [
          -52.015485,
          -2.888623523
        ]
      },
      "properties": {
        "id": "1508359572260",
        "name": "CAF DE VITORIA DO XINGU",
        "address": "RUA FRANCISCA DALLACQUA, S/N",
        "phone": "",
        "has_nicu": false,
        "accepts_sus": true,
        "private_only": false
      }
    },
    {
      "type": "Feature",
      "geometry": {
        "type": "Point",
        "coordinates": [
          -42.066301,
          -22.063962
        ]
      },
      "properties": {
        "id": "3305909598138",
        "name": "FARMACIA MUNICIPAL DE TRAJANO DE MOARAIS",
        "address": "RUA CEL JOSE MARTINS, S/N",
        "phone": "",
        "has_nicu": false,
        "accepts_sus": true,
        "private_only": false
      }
    },
    {
      "type": "Feature",
      "geometry": {
        "type": "Point",
        "coordinates": [
          -44.97074172052608,
          -17.3625694042244
        ]
      },
      "properties": {
        "id": "3109409526447",
        "name": "FARMACIA DE MINAS DE BURITIZEIRO",
        "address": "DO BREJINHO, 432",
        "phone": "374211392",
        "has_nicu": false,
        "accepts_sus": true,
        "private_only": false
      }
    },
    {
      "type": "Feature",
      "geometry": {
        "type": "Point",
        "coordinates": [
          -36.6288107,
          -9.535957
        ]
      },
      "properties": {
        "id": "2703103422526",
        "name": "CENTRAL DE ABASTECIMENTO FARMACEUTICO DE IGACI",
        "address": "DIVALDO SURUAGY, 100",
        "phone": "",
        "has_nicu": false,
        "accepts_sus": true,
        "private_only": false
      }
    },
    {
      "type": "Feature",
      "geometry": {
        "type": "Point",
        "coordinates": [
          -47.612,
          -1.127
        ]
      },
      "properties": {
        "id": "1503209497382",
        "name": "CENTRAL DE ABASTECIMENTO FARMACEUTICO CAF",
        "address": "AV MARECHAL DEODORO, 100",
        "phone": "",
        "has_nicu": false,
        "accepts_sus": true,
        "private_only": false
      }
    },
    {
      "type": "Feature",
      "geometry": {
        "type": "Point",
        "coordinates": [
          -59.951,
          -15.008
        ]
      },
      "properties": {
        "id": "5105509383050",
        "name": "FARMACIA BASICA II JARDIM AEROPORTO",
        "address": "AVENIDA MARTINIANO RIBEIRO DA FONSECA, S/N",
        "phone": "",
        "has_nicu": false,
        "accepts_sus": true,
        "private_only": false
      }
    },
    {
      "type": "Feature",
      "geometry": {
        "type": "Point",
        "coordinates": [
          -42.2788667678833,
          -20.72663549781577
        ]
      },
      "properties": {
        "id": "3125959384162",
        "name": "FARMACIA DE TODOS DE FERVEDOURO",
        "address": "AVENIDA MARIA AMELIA DE SOUZA PEDROSA, 830",
        "phone": "",
        "has_nicu": false,
        "accepts_sus": true,
        "private_only": false
      }
    },
    {
      "type": "Feature",
      "geometry": {
        "type": "Point",
        "coordinates": [
          -41.20316684246063,
          -20.60605364637139
        ]
      },
      "properties": {
        "id": "3201409368671",
        "name": "FARMACIA CIDADA MUNICIPAL DE CASTELO",
        "address": "RUA JOSE ALVES RANGEL, 52",
        "phone": "(28)3542-6300 R. 712",
        "has_nicu": false,
        "accepts_sus": true,
        "private_only": false
      }
    },
    {
      "type": "Feature",
      "geometry": {
        "type": "Point",
        "coordinates": [
          -35.249119,
          -6.913013
        ]
      },
      "properties": {
        "id": "2505239426337",
        "name": "FARMACIA BASICA MUNICIPAL DE CUITE DE MAMANGUAPE",
        "address": "PROJETADA, S/N",
        "phone": "",
        "has_nicu": false,
        "accepts_sus": true,
        "private_only": false
      }
    },
    {
      "type": "Feature",
      "geometry": {
        "type": "Point",
        "coordinates": [
          -53.73782157897949,
          -3.7183513561110377
        ]
      },
      "properties": {
        "id": "1508159525483",
        "name": "CAF CENTRAL DE ABASTECIMENTO FARMACEUTICO DE URUARA",
        "address": "CASTRO ALVES, 42",
        "phone": "",
        "has_nicu": false,
        "accepts_sus": true,
        "private_only": false
      }
    },
    {
      "type": "Feature",
      "geometry": {
        "type": "Point",
        "coordinates": [
          -50.42560994625092,
          -22.664135591100138
        ]
      },
      "properties": {
        "id": "3504009484906",
        "name": "UNIDADE DISPENSADORA DE MEDICAMENTO CENTRAL",
        "address": "RUA MAESTRO AUGUSTO MATIAS, 125",
        "phone": "18 33243585",
        "has_nicu": false,
        "accepts_sus": true,
        "private_only": false
      }
    },
    {
      "type": "Feature",
      "geometry": {
        "type": "Point",
        "coordinates": [
          -50.40836334228516,
          -7.346293192822526
        ]
      },
      "properties": {
        "id": "1501259518843",
        "name": "CENTRO DE ABASTECIMENTO FARMACEUTICO DE BANNACH",
        "address": "AVENIDA ANTONIO SOLLER, 28",
        "phone": "",
        "has_nicu": false,
        "accepts_sus": true,
        "private_only": false
      }
    },
    {
      "type": "Feature",
      "geometry": {
        "type": "Point",
        "coordinates": [
          -39.2381638,
          -7.7202366
        ]
      },
      "properties": {
        "id": "2604302828472",
        "name": "CAF CEDRO CENTRAL DE ABASTECIMENTO FARMACEUTICO",
        "address": "RUA JOAQUIM NAMBUCO, 49",
        "phone": "",
        "has_nicu": false,
        "accepts_sus": true,
        "private_only": false
      }
    },
    {
      "type": "Feature",
      "geometry": {
        "type": "Point",
        "coordinates": [
          -53.8120451,
          -29.6940059
        ]
      },
      "properties": {
        "id": "4316902828944",
        "name": "FARMACIA DE MEDICAMENTOS ESPECIAIS SANTA MARIA RS",
        "address": "AV PRESIDENTE VARGAS, 1720",
        "phone": "(55) 3174-1594",
        "has_nicu": false,
        "accepts_sus": true,
        "private_only": false
      }
    },
    {
      "type": "Feature",
      "geometry": {
        "type": "Point",
        "coordinates": [
          -50.45174270868301,
          -18.453353947116284
        ]
      },
      "properties": {
        "id": "5218502831708",
        "name": "CENTRAL DE ABASTECIMENTO FARMACEUTICO CAF",
        "address": "AV FABIO GARCIA, 155",
        "phone": "643651-8899",
        "has_nicu": false,
        "accepts_sus": true,
        "private_only": false
      }
    },
    {
      "type": "Feature",
      "geometry": {
        "type": "Point",
        "coordinates": [
          -59.93876695632935,
          -15.014266811939892
        ]
      },
      "properties": {
        "id": "5105509378707",
        "name": "FARMACIA BASICA CENTRAL DE VILA BELA",
        "address": "RUA ENIO FERNANDES LEITE, S/N",
        "phone": "6532591578",
        "has_nicu": false,
        "accepts_sus": true,
        "private_only": false
      }
    },
    {
      "type": "Feature",
      "geometry": {
        "type": "Point",
        "coordinates": [
          -49.93156,
          -24.53161
        ]
      },
      "properties": {
        "id": "4119409586881",
        "name": "CAF CENTRAL DE ABASTECIMENTO FARMACEUTICO DE PIRAI DO SUL",
        "address": "RUA 15 DE NOVEMBRO, 195",
        "phone": "4231790224",
        "has_nicu": false,
        "accepts_sus": true,
        "private_only": false
      }
    },
    {
      "type": "Feature",
      "geometry": {
        "type": "Point",
        "coordinates": [
          -40.75185298919678,
          -4.16272628216647
        ]
      },
      "properties": {
        "id": "2305009585168",
        "name": "CAF DE GUARACIABA DO NORTE",
        "address": "RUA CAPITAO FERREIRA, 52",
        "phone": "8836522176",
        "has_nicu": false,
        "accepts_sus": true,
        "private_only": false
      }
    },
    {
      "type": "Feature",
      "geometry": {
        "type": "Point",
        "coordinates": [
          -60.03273010253906,
          -3.14325855753886
        ]
      },
      "properties": {
        "id": "1302609518924",
        "name": "USF FLUVIAL DR NEY LACERDA",
        "address": "CALHA DO RIO NEGRO, S/N",
        "phone": "(92)36132901",
        "has_nicu": false,
        "accepts_sus": true,
        "private_only": false
      }
    },
    {
      "type": "Feature",
      "geometry": {
        "type": "Point",
        "coordinates": [
          -49.7002048,
          -6.9390113
        ]
      },
      "properties": {
        "id": "1507759977112",
        "name": "CENTRAL DE ABASTECIMENTO FARMACEUTICO CAF",
        "address": "RUA JACARANDA, 123",
        "phone": "",
        "has_nicu": false,
        "accepts_sus": true,
        "private_only": false
      }
    },
    {
      "type": "Feature",
      "geometry": {
        "type": "Point",
        "coordinates": [
          -58.573,
          -15.494
        ]
      },
      "properties": {
        "id": "5104509097562",
        "name": "FARMACIA BASICA MUNICIPAL INDIAVAI",
        "address": "AVENIDA GOVERNADOR JAIME CAMPOS, 655",
        "phone": "",
        "has_nicu": false,
        "accepts_sus": true,
        "private_only": false
      }
    },
    {
      "type": "Feature",
      "geometry": {
        "type": "Point",
        "coordinates": [
          -56.73159599304199,
          -2.629550982057735
        ]
      },
      "properties": {
        "id": "1303409985735",
        "name": "CENTRAL DE ABASTECIMENTO FARMACEUTICO SESAI",
        "address": "AV NACOES UNIDAS, 1744",
        "phone": "",
        "has_nicu": false,
        "accepts_sus": true,
        "private_only": false
      }
    },
    {
      "type": "Feature",
      "geometry": {
        "type": "Point",
        "coordinates": [
          -40.824079513549805,
          -21.04275023002364
        ]
      },
      "properties": {
        "id": "3203329966323",
        "name": "CENTRAL DE ABASTECIMENTO FARMACEUTICO DE MARATAIZES",
        "address": "RUA AMELIA MALTASHE, S/N",
        "phone": "",
        "has_nicu": false,
        "accepts_sus": true,
        "private_only": false
      }
    },
    {
      "type": "Feature",
      "geometry": {
        "type": "Point",
        "coordinates": [
          -39.93698179721832,
          -7.78140564043716
        ]
      },
      "properties": {
        "id": "2602004026225",
        "name": "FARMACIA MUNICIPAL DE BODOCO",
        "address": "RUA AGAMENON MAGALHAES, 208",
        "phone": "",
        "has_nicu": false,
        "accepts_sus": true,
        "private_only": false
      }
    },
    {
      "type": "Feature",
      "geometry": {
        "type": "Point",
        "coordinates": [
          -42.59807109832764,
          -18.80412593423557
        ]
      },
      "properties": {
        "id": "3122203226581",
        "name": "FARMACIA DE MINAS",
        "address": "RUA MARIA ILIDIA, 22",
        "phone": "33987028329",
        "has_nicu": false,
        "accepts_sus": true,
        "private_only": false
      }
    },
    {
      "type": "Feature",
      "geometry": {
        "type": "Point",
        "coordinates": [
          -49.0611114,
          -22.3342392
        ]
      },
      "properties": {
        "id": "3506003880966",
        "name": "HOSPITAL DAS CLINICAS DE BAURU HCB",
        "address": "RUA SILVIO MARCHIONE, 320",
        "phone": "",
        "has_nicu": false,
        "accepts_sus": true,
        "private_only": false
      }
    },
    {
      "type": "Feature",
      "geometry": {
        "type": "Point",
        "coordinates": [
          -47.31086254119873,
          -22.94930434448436
        ]
      },
      "properties": {
        "id": "3531803271366",
        "name": "FARMACIA DE ALTO CUSTO",
        "address": "AV JANIO QUADROS, 1150",
        "phone": "1938796109",
        "has_nicu": false,
        "accepts_sus": true,
        "private_only": false
      }
    },
    {
      "type": "Feature",
      "geometry": {
        "type": "Point",
        "coordinates": [
          -38.764421,
          -12.326711
        ]
      },
      "properties": {
        "id": "2908502985462",
        "name": "FARMACIA BASICA MUNICIPAL",
        "address": "RUA JOAO HIPOLITO DE AZEVEDO, S/N",
        "phone": "7532433127",
        "has_nicu": false,
        "accepts_sus": true,
        "private_only": false
      }
    },
    {
      "type": "Feature",
      "geometry": {
        "type": "Point",
        "coordinates": [
          -35.479,
          -6.311
        ]
      },
      "properties": {
        "id": "2411509494650",
        "name": "FARMACIA DE SANTO ANTONIO",
        "address": "RUA ANA DE PONTES, 136",
        "phone": "",
        "has_nicu": false,
        "accepts_sus": true,
        "private_only": false
      }
    },
    {
      "type": "Feature",
      "geometry": {
        "type": "Point",
        "coordinates": [
          -62.26018667221069,
          -10.933554680826443
        ]
      },
      "properties": {
        "id": "1101559271945",
        "name": "FARMACIA BASICA DE TEIXEIROPOLIS",
        "address": "RUA DO PRINCIPE, S/N",
        "phone": "",
        "has_nicu": false,
        "accepts_sus": true,
        "private_only": false
      }
    },
    {
      "type": "Feature",
      "geometry": {
        "type": "Point",
        "coordinates": [
          -49.327046,
          -15.746988
        ]
      },
      "properties": {
        "id": "5211809262768",
        "name": "ALMOXARIFADO CENTRAL SMS JARAGUA",
        "address": "AVENIDA PAULO ALVES, S/N",
        "phone": "",
        "has_nicu": false,
        "accepts_sus": true,
        "private_only": false
      }
    },
    {
      "type": "Feature",
      "geometry": {
        "type": "Point",
        "coordinates": [
          -53.51901,
          -26.72665
        ]
      },
      "properties": {
        "id": "4217209285474",
        "name": "ALMOXARIFADO SAUDE",
        "address": "JONH KENNEDY, 1437",
        "phone": "",
        "has_nicu": false,
        "accepts_sus": true,
        "private_only": false
      }
    },
    {
      "type": "Feature",
      "geometry": {
        "type": "Point",
        "coordinates": [
          -36.04820251464844,
          -5.063329636503046
        ]
      },
      "properties": {
        "id": "2401850952885",
        "name": "FARMACIA BASICA DE CAICARA DO NORTE",
        "address": "RUA IRMA ALOIZIA, 280",
        "phone": "",
        "has_nicu": false,
        "accepts_sus": true,
        "private_only": false
      }
    },
    {
      "type": "Feature",
      "geometry": {
        "type": "Point",
        "coordinates": [
          -50.4322712,
          -21.205442
        ]
      },
      "properties": {
        "id": "3502800872652",
        "name": "NUCLEO DE ASSISTENCIA FARMACEUTICA",
        "address": "RUA AFONSO PENA, 1537",
        "phone": "(18) 3636-1100",
        "has_nicu": false,
        "accepts_sus": true,
        "private_only": false
      }
    },
    {
      "type": "Feature",
      "geometry": {
        "type": "Point",
        "coordinates": [
          -45.4429292678833,
          -19.1557492471533
        ]
      },
      "properties": {
        "id": "3100209493719",
        "name": "FARMACIA DE TODOS DE ABAETE",
        "address": "PRACA JK, 20",
        "phone": "",
        "has_nicu": false,
        "accepts_sus": true,
        "private_only": false
      }
    },
    {
      "type": "Feature",
      "geometry": {
        "type": "Point",
        "coordinates": [
          -51.08498811721802,
          -26.244560444338536
        ]
      },
      "properties": {
        "id": "4213609425977",
        "name": "CENTRAL DE MEDICAMENTOS",
        "address": "RUA WENCESLAU BRAZ, 461",
        "phone": "(42) 3578-0158",
        "has_nicu": false,
        "accepts_sus": true,
        "private_only": false
      }
    },
    {
      "type": "Feature",
      "geometry": {
        "type": "Point",
        "coordinates": [
          -46.63597583770752,
          -1.021513461527265
        ]
      },
      "properties": {
        "id": "1500909390146",
        "name": "CENTRAL DE ABASTECIMENTO FARMACEUTICO CAF AUGUSTO CORREA",
        "address": "AVENIDA JOAO BATISTA MONTEIRO, S/N",
        "phone": "",
        "has_nicu": false,
        "accepts_sus": true,
        "private_only": false
      }
    },
    {
      "type": "Feature",
      "geometry": {
        "type": "Point",
        "coordinates": [
          -61.29625853933484,
          -5.812781704815446
        ]
      },
      "properties": {
        "id": "1302709412808",
        "name": "CENTRAL DE MEDICAMENTOS DE MANICORE",
        "address": "TRAVESSA 7 DE SETEMBRO, 307",
        "phone": "",
        "has_nicu": false,
        "accepts_sus": true,
        "private_only": false
      }
    },
    {
      "type": "Feature",
      "geometry": {
        "type": "Point",
        "coordinates": [
          -49.0592851,
          -25.4418165
        ]
      },
      "properties": {
        "id": "4119509465804",
        "name": "CAF CENTRAL DE ABASTECIMENTO FARMACEUTICO",
        "address": "AVENIDA GETULIO VARGAS, S/N",
        "phone": "3590-3745",
        "has_nicu": false,
        "accepts_sus": true,
        "private_only": false
      }
    },
    {
      "type": "Feature",
      "geometry": {
        "type": "Point",
        "coordinates": [
          -41.8611942,
          -19.0695554
        ]
      },
      "properties": {
        "id": "3112659434909",
        "name": "FARMACIA DE MINAS",
        "address": "RUA ANTONIO PEREIRA DA CUNHA, 145",
        "phone": "3399706-2846",
        "has_nicu": false,
        "accepts_sus": true,
        "private_only": false
      }
    },
    {
      "type": "Feature",
      "geometry": {
        "type": "Point",
        "coordinates": [
          -47.852068,
          -0.732887
        ]
      },
      "properties": {
        "id": "1502909342311",
        "name": "FARMACIA BASICA MUNICIPAL DE CURUCA",
        "address": "RUA LAURO SODRE, S/N",
        "phone": "",
        "has_nicu": false,
        "accepts_sus": true,
        "private_only": false
      }
    },
    {
      "type": "Feature",
      "geometry": {
        "type": "Point",
        "coordinates": [
          -50.04490256,
          -7.83112471
        ]
      },
      "properties": {
        "id": "1505559321446",
        "name": "CAF CENTRAL DE A FARMACEUTICO DE PAU DARCO",
        "address": "RUA JOSE EDUARDO NETO, 00",
        "phone": "94-33568299",
        "has_nicu": false,
        "accepts_sus": true,
        "private_only": false
      }
    },
    {
      "type": "Feature",
      "geometry": {
        "type": "Point",
        "coordinates": [
          -48.7717866897583,
          -15.785078350909211
        ]
      },
      "properties": {
        "id": "5205519404481",
        "name": "FARMARCIA BASICA",
        "address": "AV 03 DE JULHO ESQ COM RUA 7, S/N",
        "phone": "6233391818",
        "has_nicu": false,
        "accepts_sus": true,
        "private_only": false
      }
    },
    {
      "type": "Feature",
      "geometry": {
        "type": "Point",
        "coordinates": [
          -48.7418238,
          -13.5091434
        ]
      },
      "properties": {
        "id": "5221459165037",
        "name": "FARMACIA BASICA MUNICIPAL DE TROMBAS",
        "address": "AVENIDA PRESIDENTE VARGAS",
        "phone": "",
        "has_nicu": false,
        "accepts_sus": true,
        "private_only": false
      }
    },
    {
      "type": "Feature",
      "geometry": {
        "type": "Point",
        "coordinates": [
          -43.5827487,
          -19.6879666
        ]
      },
      "properties": {
        "id": "3136609189653",
        "name": "FARMACIA DE TODOS",
        "address": "RUA CAROLINO MACHADO, 350",
        "phone": "36851400",
        "has_nicu": false,
        "accepts_sus": true,
        "private_only": false
      }
    },
    {
      "type": "Feature",
      "geometry": {
        "type": "Point",
        "coordinates": [
          -46.86643,
          -23.34708
        ]
      },
      "properties": {
        "id": "3509209165509",
        "name": "SAE CTA CAJAMAR",
        "address": "AV DR ANTONIO JOAO ABDALLA, 1500",
        "phone": "(11) 4446-0119",
        "has_nicu": false,
        "accepts_sus": true,
        "private_only": false
      }
    },
    {
      "type": "Feature",
      "geometry": {
        "type": "Point",
        "coordinates": [
          -42.1403382917731,
          -19.7827323
        ]
      },
      "properties": {
        "id": "3113409189742",
        "name": "FARMACIA MUNICIPAL",
        "address": "PRACA CALOGERAS, 129",
        "phone": "",
        "has_nicu": false,
        "accepts_sus": true,
        "private_only": false
      }
    },
    {
      "type": "Feature",
      "geometry": {
        "type": "Point",
        "coordinates": [
          -40.34844875335693,
          -17.83621452105431
        ]
      },
      "properties": {
        "id": "3144300046922",
        "name": "FARMACIA DE TODOS CENTRO",
        "address": "PRACA TEOFILO OTONI, S/N",
        "phone": "",
        "has_nicu": false,
        "accepts_sus": true,
        "private_only": false
      }
    },